{
"type": "FeatureCollection",
"name": "bodegalay",
"crs": { "type": "name", "properties": { "name": "urn:ogc:def:crs:OGC:1.3:CRS84" } },
"features": [
{ "type": "Feature", "properties": { "County": "KINGS", "Operation Type": "Store", "Establishment Type": "A", "Entity Name": "SKILLMART INC", "DBA Name": "SKILLMART", "Street Number": "1010", "Street Name": "BEDFORD AVE", "Address Line 2": null, "Address Line 3": null, "City": "BROOKLYN", "State": "NY", "Zip Code": 11205, "Bodega": "#153cff", "color": "#01eaff" }, "geometry": { "type": "Point", "coordinates": [ -73.955486796, 40.690346184 ] } },
{ "type": "Feature", "properties": { "County": "KINGS", "Operation Type": "Store", "Establishment Type": "AC", "Entity Name": "ADAM DELI GROCERY II CORP", "DBA Name": "ADAM DELI GROCERY II", "Street Number": "863", "Street Name": "FLATBUSH AVE", "Address Line 2": null, "Address Line 3": null, "City": "BROOKLYN", "State": "NY", "Zip Code": 11226, "Bodega": "#153cff", "color": "#01eaff" }, "geometry": { "type": "Point", "coordinates": [ -73.958722546, 40.651107855 ] } },
{ "type": "Feature", "properties": { "County": "QUEENS", "Operation Type": "Store", "Establishment Type": "AC", "Entity Name": "AI MART CP INC", "DBA Name": "AI MART", "Street Number": "132-19", "Street Name": "14TH AVE", "Address Line 2": null, "Address Line 3": null, "City": "COLLEGE POINT", "State": "NY", "Zip Code": 11356, "Bodega": "#153cff", "color": "#01eaff" }, "geometry": { "type": "Point", "coordinates": [ -73.835518041, 40.787378867 ] } },
{ "type": "Feature", "properties": { "County": "RICHMOND", "Operation Type": "Store", "Establishment Type": "AC", "Entity Name": "PURNIMA CONVENIENCE STORE INC", "DBA Name": "PAPA JOES DELI", "Street Number": "280", "Street Name": "MORNING STAR ROAD", "Address Line 2": null, "Address Line 3": null, "City": "STATEN ISLAND", "State": "NY", "Zip Code": 10303, "Bodega": "#153cff", "color": "#01eaff" }, "geometry": { "type": "Point", "coordinates": [ -74.146961064, 40.63137237 ] } },
{ "type": "Feature", "properties": { "County": "QUEENS", "Operation Type": "Store", "Establishment Type": "A", "Entity Name": "ERIC CONVENIENCE STORE INC", "DBA Name": "ERIC CONVENIENCE STORE", "Street Number": "102-06", "Street Name": "43RD AVE", "Address Line 2": null, "Address Line 3": null, "City": "CORONA", "State": "NY", "Zip Code": 11368, "Bodega": "#153cff", "color": "#01eaff" }, "geometry": { "type": "Point", "coordinates": [ -73.862480611, 40.747044562 ] } },
{ "type": "Feature", "properties": { "County": "KINGS", "Operation Type": "Store", "Establishment Type": "AC", "Entity Name": "513 DELI & GRILL INC", "DBA Name": "513 DELI & GRILL", "Street Number": "513", "Street Name": "5TH AVE", "Address Line 2": null, "Address Line 3": null, "City": "BROOKLYN", "State": "NY", "Zip Code": 11215, "Bodega": "#153cff", "color": "#01eaff" }, "geometry": { "type": "Point", "coordinates": [ -73.988090555, 40.666816756 ] } },
{ "type": "Feature", "properties": { "County": "QUEENS", "Operation Type": "Store", "Establishment Type": "AC", "Entity Name": "G MART NY INC", "DBA Name": "G MART NY", "Street Number": "75-01", "Street Name": "BROADWAY", "Address Line 2": null, "Address Line 3": null, "City": "ELMHURST", "State": "NY", "Zip Code": 11373, "Bodega": "#153cff", "color": "#01eaff" }, "geometry": { "type": "Point", "coordinates": [ -73.890044752, 40.74624057 ] } },
{ "type": "Feature", "properties": { "County": "BRONX", "Operation Type": "Store", "Establishment Type": "AC", "Entity Name": "CASITA MARIA DELI CORP", "DBA Name": "CASITA MARIA DELI", "Street Number": "1020-1022", "Street Name": "EAST 163RD STREET", "Address Line 2": null, "Address Line 3": null, "City": "BRONX", "State": "NY", "Zip Code": 10459, "Bodega": "#153cff", "color": "#01eaff" }, "geometry": { "type": "Point", "coordinates": [ -73.892223543, 40.82082354 ] } },
{ "type": "Feature", "properties": { "County": "DUTCHESS", "Operation Type": "Store", "Establishment Type": "AC", "Entity Name": "FRESH DELI 41 INC", "DBA Name": "FRESH DELI 41", "Street Number": "41", "Street Name": "WHINFIELD STREET", "Address Line 2": null, "Address Line 3": null, "City": "POUGHKEEPSIE", "State": "NY", "Zip Code": 12601, "Bodega": "#153cff", "color": "#01eaff" }, "geometry": { "type": "Point", "coordinates": [ -73.93425334, 41.713295692 ] } },
{ "type": "Feature", "properties": { "County": "NEW YORK", "Operation Type": "Store", "Establishment Type": "AC", "Entity Name": "YUMMILICIOUS DELI #3 CORP", "DBA Name": "YUMMILICIOUS DELI #3", "Street Number": "23", "Street Name": "E 115TH ST", "Address Line 2": null, "Address Line 3": null, "City": "NEW YORK", "State": "NY", "Zip Code": 10029, "Bodega": "#153cff", "color": "#01eaff" }, "geometry": { "type": "Point", "coordinates": [ -73.945715927, 40.799588031 ] } },
{ "type": "Feature", "properties": { "County": "BRONX", "Operation Type": "Store", "Establishment Type": "AC", "Entity Name": "77 SWIPER DELI CORP", "DBA Name": "77 SWIPER DELI", "Street Number": "2742", "Street Name": "E TREMONT AVE", "Address Line 2": null, "Address Line 3": null, "City": "BRONX", "State": "NY", "Zip Code": 10461, "Bodega": "#153cff", "color": "#01eaff" }, "geometry": { "type": "Point", "coordinates": [ -73.844577369, 40.842040736 ] } },
{ "type": "Feature", "properties": { "County": "BRONX", "Operation Type": "Store", "Establishment Type": "AC", "Entity Name": "MUNCHIES DELI CORP", "DBA Name": "MUNCHIES DELI", "Street Number": "500", "Street Name": "BAYCHESTER AVE", "Address Line 2": null, "Address Line 3": null, "City": "BRONX", "State": "NY", "Zip Code": 10475, "Bodega": "#153cff", "color": "#01eaff" }, "geometry": { "type": "Point", "coordinates": [ -73.831540073, 40.869229911 ] } },
{ "type": "Feature", "properties": { "County": "RICHMOND", "Operation Type": "Store", "Establishment Type": "A", "Entity Name": "A&H PELTON CONVENIENCE CORP", "DBA Name": "A&H PELTON CONVENIENCE", "Street Number": "607", "Street Name": "FOREST AVE", "Address Line 2": null, "Address Line 3": null, "City": "STATEN ISLAND", "State": "NY", "Zip Code": 10310, "Bodega": "#153cff", "color": "#01eaff" }, "geometry": { "type": "Point", "coordinates": [ -74.109521701, 40.630129208 ] } },
{ "type": "Feature", "properties": { "County": "BRONX", "Operation Type": "Store", "Establishment Type": "AC", "Entity Name": "LA TIA DELI GROCERY INC", "DBA Name": "LA TIA DELI GROCERY", "Street Number": "253", "Street Name": "E 188TH STREET", "Address Line 2": null, "Address Line 3": null, "City": "BRONX", "State": "NY", "Zip Code": 10458, "Bodega": "#153cff", "color": "#01eaff" }, "geometry": { "type": "Point", "coordinates": [ -73.896114423, 40.861061579 ] } },
{ "type": "Feature", "properties": { "County": "KINGS", "Operation Type": "Store", "Establishment Type": "AC", "Entity Name": "SAJOMA GRILL AND DELI CORP", "DBA Name": "SAJOMA GRILL AND DELI", "Street Number": "442", "Street Name": "MARCUS GARVEY BLVD", "Address Line 2": null, "Address Line 3": null, "City": "BROOKLYN", "State": "NY", "Zip Code": 11216, "Bodega": "#153cff", "color": "#01eaff" }, "geometry": { "type": "Point", "coordinates": [ -73.937960991, 40.681832685 ] } },
{ "type": "Feature", "properties": { "County": "RICHMOND", "Operation Type": "Store", "Establishment Type": "AC", "Entity Name": "DORP LANE DELI INC", "DBA Name": "DORP LANE DELI", "Street Number": "360", "Street Name": "NEW DORP LANE", "Address Line 2": null, "Address Line 3": null, "City": "STATEN ISLAND", "State": "NY", "Zip Code": 10306, "Bodega": "#153cff", "color": "#01eaff" }, "geometry": { "type": "Point", "coordinates": [ -74.110675051, 40.570838307 ] } },
{ "type": "Feature", "properties": { "County": "ORANGE", "Operation Type": "Store", "Establishment Type": "A", "Entity Name": "C & H CONVENIENCE STORE LLC", "DBA Name": "C&H CONVENIENCE STORE", "Street Number": "278", "Street Name": "NORTH ST", "Address Line 2": null, "Address Line 3": null, "City": "MIDDLETOWN", "State": "NY", "Zip Code": 10940, "Bodega": "#153cff", "color": "#01eaff" }, "geometry": { "type": "Point", "coordinates": [ -74.415103679, 41.453287504 ] } },
{ "type": "Feature", "properties": { "County": "KINGS", "Operation Type": "Store", "Establishment Type": "AC", "Entity Name": "MR AVOCADO DELI & GRILL CORPORATION", "DBA Name": "MR AVOCADO DELI & GRILL", "Street Number": "176", "Street Name": "CENTRAL AVE", "Address Line 2": null, "Address Line 3": null, "City": "BROOKLYN", "State": "NY", "Zip Code": 11221, "Bodega": "#153cff", "color": "#01eaff" }, "geometry": { "type": "Point", "coordinates": [ -73.926608541, 40.698782862 ] } },
{ "type": "Feature", "properties": { "County": "BROOME", "Operation Type": "Store", "Establishment Type": "AC", "Entity Name": "MG GAS AND FOOD MART INC", "DBA Name": "MG GAS AND FOOD MART", "Street Number": "1429", "Street Name": "UPPER FRONT ST", "Address Line 2": null, "Address Line 3": null, "City": "BINGHAMTON", "State": "NY", "Zip Code": 13901, "Bodega": "#153cff", "color": "#01eaff" }, "geometry": { "type": "Point", "coordinates": [ -75.890203135, 42.166060243 ] } },
{ "type": "Feature", "properties": { "County": "NEW YORK", "Operation Type": "Store", "Establishment Type": "AC", "Entity Name": "MANHATTAN 1 DELI GRILL AND JUICE BAR COR", "DBA Name": "MANHATTAN 1 DELI GRILL", "Street Number": "59", "Street Name": "STANTON ST", "Address Line 2": null, "Address Line 3": null, "City": "NEW YORK", "State": "NY", "Zip Code": 10002, "Bodega": "#153cff", "color": "#01eaff" }, "geometry": { "type": "Point", "coordinates": [ -73.99019961, 40.721886782 ] } },
{ "type": "Feature", "properties": { "County": "KINGS", "Operation Type": "Store", "Establishment Type": "AC", "Entity Name": "ABU ALI DELI & GRILL CORPORATION", "DBA Name": "ABU ALI DELI & GRILL", "Street Number": "1537", "Street Name": "DEKLAB AVE", "Address Line 2": null, "Address Line 3": null, "City": "BROOKLYN", "State": "NY", "Zip Code": 11237, "Bodega": "#153cff", "color": "#01eaff" }, "geometry": { "type": "Point", "coordinates": [ -73.921202968, 40.702460171 ] } },
{ "type": "Feature", "properties": { "County": "RICHMOND", "Operation Type": "Store", "Establishment Type": "ABC", "Entity Name": "GUYON BAGEL DELI & GROCERY INC", "DBA Name": "GUYON BAGEL DELI & GROCERY", "Street Number": "99", "Street Name": "GUYON AVENUE", "Address Line 2": null, "Address Line 3": null, "City": "STATEN ISLAND", "State": "NY", "Zip Code": 10306, "Bodega": "#153cff", "color": "#01eaff" }, "geometry": { "type": "Point", "coordinates": [ -74.127399881, 40.564864776 ] } },
{ "type": "Feature", "properties": { "County": "BRONX", "Operation Type": "Store", "Establishment Type": "A", "Entity Name": "FOOD STOP DELI CORP", "DBA Name": "FOOD STOP DELI", "Street Number": "545", "Street Name": "E 137TH ST", "Address Line 2": null, "Address Line 3": null, "City": "BRONX", "State": "NY", "Zip Code": 10454, "Bodega": "#153cff", "color": "#01eaff" }, "geometry": { "type": "Point", "coordinates": [ -73.91844683, 40.806469825 ] } },
{ "type": "Feature", "properties": { "County": "QUEENS", "Operation Type": "Store", "Establishment Type": "AC", "Entity Name": "RAPHAEL DELI CORP", "DBA Name": "RAPHAEL DELI", "Street Number": "48-19", "Street Name": "25TH AVE", "Address Line 2": null, "Address Line 3": null, "City": "ASTORIA", "State": "NY", "Zip Code": 11103, "Bodega": "#153cff", "color": "#01eaff" }, "geometry": { "type": "Point", "coordinates": [ -73.904632783, 40.764803384 ] } },
{ "type": "Feature", "properties": { "County": "SUFFOLK", "Operation Type": "Store", "Establishment Type": "AC", "Entity Name": "FLOYD CONVENIENCE INC", "DBA Name": "FLOYD CONVENIENCE", "Street Number": "431", "Street Name": "WILLIAM FLOYD PKWY", "Address Line 2": null, "Address Line 3": null, "City": "SHIRLEY", "State": "NY", "Zip Code": 11967, "Bodega": "#153cff", "color": "#01eaff" }, "geometry": { "type": "Point", "coordinates": [ -72.864675971, 40.781607606 ] } },
{ "type": "Feature", "properties": { "County": "ORANGE", "Operation Type": "Store", "Establishment Type": "AC", "Entity Name": "LOS BROTHERS GROCERY & DELI LLC", "DBA Name": "LOS BROTHERS GROCERY & DELI", "Street Number": "95", "Street Name": "S LANDER ST", "Address Line 2": null, "Address Line 3": null, "City": "NEWBURGH", "State": "NY", "Zip Code": 12550, "Bodega": "#153cff", "color": "#01eaff" }, "geometry": { "type": "Point", "coordinates": [ -74.013336596, 41.493320815 ] } },
{ "type": "Feature", "properties": { "County": "KINGS", "Operation Type": "Store", "Establishment Type": "AC", "Entity Name": "LINDEN DELI AND GRILL 2 INC", "DBA Name": "LINDEN DELI AND GRILL 2", "Street Number": "2602", "Street Name": "LINDEN BLVD", "Address Line 2": null, "Address Line 3": null, "City": "BROOKLYN", "State": "NY", "Zip Code": 11208, "Bodega": "#153cff", "color": "#01eaff" }, "geometry": { "type": "Point", "coordinates": [ -73.868712389, 40.668298342 ] } },
{ "type": "Feature", "properties": { "County": "KINGS", "Operation Type": "Store", "Establishment Type": "AC", "Entity Name": "ALEX DELI GROCERY 2 INC", "DBA Name": "ALEX DELI GROCERY 2", "Street Number": "2", "Street Name": "SUTTER AVE", "Address Line 2": null, "Address Line 3": null, "City": "BROOKLYN", "State": "NY", "Zip Code": 11212, "Bodega": "#153cff", "color": "#01eaff" }, "geometry": { "type": "Point", "coordinates": [ -73.922844731, 40.665168371 ] } },
{ "type": "Feature", "properties": { "County": "QUEENS", "Operation Type": "Store", "Establishment Type": "AC", "Entity Name": "GAZA DELI & GRILL CORP", "DBA Name": "GAZA DELI & GRILL", "Street Number": "50-60", "Street Name": "48TH ST", "Address Line 2": null, "Address Line 3": null, "City": "WOODSIDE", "State": "NY", "Zip Code": 11377, "Bodega": "#153cff", "color": "#01eaff" }, "geometry": { "type": "Point", "coordinates": [ -73.918519669, 40.7355821 ] } },
{ "type": "Feature", "properties": { "County": "QUEENS", "Operation Type": "Store", "Establishment Type": "AC", "Entity Name": "LOVE DELI & GROCERY INC", "DBA Name": "LOVE DELI AND GROCERY", "Street Number": "39-43", "Street Name": "48TH AVE", "Address Line 2": null, "Address Line 3": null, "City": "SUNNYSIDE", "State": "NY", "Zip Code": 11104, "Bodega": "#153cff", "color": "#01eaff" }, "geometry": { "type": "Point", "coordinates": [ -73.925278082, 40.740119601 ] } },
{ "type": "Feature", "properties": { "County": "NEW YORK", "Operation Type": "Store", "Establishment Type": "AC", "Entity Name": "SANTOS GOURMET DELI AND GROCERY CORP", "DBA Name": "SANTOS GOURMET DELI AND GROCERY", "Street Number": "4672", "Street Name": "BROADWAY", "Address Line 2": null, "Address Line 3": null, "City": "NEW YORK", "State": "NY", "Zip Code": 10040, "Bodega": "#153cff", "color": "#01eaff" }, "geometry": { "type": "Point", "coordinates": [ -73.929629798, 40.863162503 ] } },
{ "type": "Feature", "properties": { "County": "SUFFOLK", "Operation Type": "Store", "Establishment Type": "AC", "Entity Name": "SPRING MART LLC", "DBA Name": "SUPER SELECT FOOD", "Street Number": "1572", "Street Name": "BRENTWOOD RD", "Address Line 2": null, "Address Line 3": null, "City": "BAY SHORE", "State": "NY", "Zip Code": 11706, "Bodega": "#153cff", "color": "#01eaff" }, "geometry": { "type": "Point", "coordinates": [ -73.245534061, 40.758117124 ] } },
{ "type": "Feature", "properties": { "County": "QUEENS", "Operation Type": "Store", "Establishment Type": "AC", "Entity Name": "27 & 7 DELI GROCERY INC", "DBA Name": "27 & 7 DELI GROCERY", "Street Number": "204-19", "Street Name": "HOLLIS AVE", "Address Line 2": null, "Address Line 3": null, "City": "SAINT ALBANS", "State": "NY", "Zip Code": 11412, "Bodega": "#153cff", "color": "#01eaff" }, "geometry": { "type": "Point", "coordinates": [ -73.753256534, 40.707008737 ] } },
{ "type": "Feature", "properties": { "County": "NEW YORK", "Operation Type": "Store", "Establishment Type": "AC", "Entity Name": "EAST SIDE CONVENIENCE CORPORATION", "DBA Name": "EAST SIDE CONVENIENCE", "Street Number": "1726", "Street Name": "1ST AVE", "Address Line 2": null, "Address Line 3": null, "City": "NEW YORK", "State": "NY", "Zip Code": 10128, "Bodega": "#153cff", "color": "#01eaff" }, "geometry": { "type": "Point", "coordinates": [ -73.947582326, 40.779000651 ] } },
{ "type": "Feature", "properties": { "County": "SUFFOLK", "Operation Type": "Store", "Establishment Type": "AC", "Entity Name": "EMJ CONVENIENCE INC", "DBA Name": "7 ELEVEN STORE #38134B", "Street Number": "140", "Street Name": "HOSPITAL RD", "Address Line 2": null, "Address Line 3": null, "City": "PATCHOGUE", "State": "NY", "Zip Code": 11772, "Bodega": "#153cff", "color": "#01eaff" }, "geometry": { "type": "Point", "coordinates": [ -72.97902919, 40.782024004 ] } },
{ "type": "Feature", "properties": { "County": "NEW YORK", "Operation Type": "Store", "Establishment Type": "AC", "Entity Name": "LUSCIOUS MARKET DELI CORP", "DBA Name": "LUSCIOUS MARKET DELI", "Street Number": "68", "Street Name": "2ND AVE", "Address Line 2": null, "Address Line 3": null, "City": "NEW YORK", "State": "NY", "Zip Code": 10003, "Bodega": "#153cff", "color": "#01eaff" }, "geometry": { "type": "Point", "coordinates": [ -73.989348679, 40.726007368 ] } },
{ "type": "Feature", "properties": { "County": "BRONX", "Operation Type": "Store", "Establishment Type": "AC", "Entity Name": "FREEMAN DELI GROCERY CORP", "DBA Name": "FREEMAN DEL GROCERY", "Street Number": "854", "Street Name": "FREEMAN ST", "Address Line 2": null, "Address Line 3": null, "City": "BRONX", "State": "NY", "Zip Code": 10459, "Bodega": "#153cff", "color": "#01eaff" }, "geometry": { "type": "Point", "coordinates": [ -73.895817428, 40.83044508 ] } },
{ "type": "Feature", "properties": { "County": "NEW YORK", "Operation Type": "Store", "Establishment Type": "AC", "Entity Name": "SOHO DELI GROCERY T INC", "DBA Name": "SOHO DELI GROCERY T", "Street Number": "386", "Street Name": "CANAL ST", "Address Line 2": null, "Address Line 3": null, "City": "NEW YORK", "State": "NY", "Zip Code": 10013, "Bodega": "#153cff", "color": "#01eaff" }, "geometry": { "type": "Point", "coordinates": [ -74.004969277, 40.721385335 ] } },
{ "type": "Feature", "properties": { "County": "SUFFOLK", "Operation Type": "Store", "Establishment Type": "AC", "Entity Name": "RINCONCITO LATINO DELI INC", "DBA Name": "ONE STOP DELI", "Street Number": "2520", "Street Name": "MIDDLE COUNTRY RD", "Address Line 2": null, "Address Line 3": null, "City": "CENTEREACH", "State": "NY", "Zip Code": 11720, "Bodega": "#153cff", "color": "#01eaff" }, "geometry": { "type": "Point", "coordinates": [ -73.100667369, 40.858072928 ] } },
{ "type": "Feature", "properties": { "County": "WESTCHESTER", "Operation Type": "Store", "Establishment Type": "AC", "Entity Name": "TEPEYAC DELI CORPORATION", "DBA Name": "TEPEYAC DELI", "Street Number": "202", "Street Name": "ELM ST", "Address Line 2": null, "Address Line 3": null, "City": "YONKERS", "State": "NY", "Zip Code": 10701, "Bodega": "#153cff", "color": "#01eaff" }, "geometry": { "type": "Point", "coordinates": [ -73.887905438, 40.932543162 ] } },
{ "type": "Feature", "properties": { "County": "NEW YORK", "Operation Type": "Store", "Establishment Type": "AC", "Entity Name": "MEXICAN CULTURE DELI GROCERY GROUP THE", "DBA Name": "MEXICAN CULTURE DELI GROCERY GROUP", "Street Number": "2017", "Street Name": "AMSTERDAM AVE", "Address Line 2": null, "Address Line 3": null, "City": "NEW YORK", "State": "NY", "Zip Code": 10032, "Bodega": "#153cff", "color": "#01eaff" }, "geometry": { "type": "Point", "coordinates": [ -73.940440358, 40.834762101 ] } },
{ "type": "Feature", "properties": { "County": "ONONDAGA", "Operation Type": "Store", "Establishment Type": "AC", "Entity Name": "NORTHSIDE CONVENIENCE & DELI LLC", "DBA Name": "NORTHSIDE CONVENIENCE & DELI", "Street Number": "1120", "Street Name": "N SALINA ST", "Address Line 2": null, "Address Line 3": null, "City": "SYRACUSE", "State": "NY", "Zip Code": 13208, "Bodega": "#153cff", "color": "#01eaff" }, "geometry": { "type": "Point", "coordinates": [ -76.157389291, 43.065972507 ] } },
{ "type": "Feature", "properties": { "County": "NEW YORK", "Operation Type": "Store", "Establishment Type": "AC", "Entity Name": "ALEXANDERS MINI MART CORP", "DBA Name": "ALEXANDERS MINI MART", "Street Number": "1121", "Street Name": "1ST AVE", "Address Line 2": null, "Address Line 3": null, "City": "NEW YORK", "State": "NY", "Zip Code": 10065, "Bodega": "#153cff", "color": "#01eaff" }, "geometry": { "type": "Point", "coordinates": [ -73.961029916, 40.761228837 ] } },
{ "type": "Feature", "properties": { "County": "MONROE", "Operation Type": "Store", "Establishment Type": "AC", "Entity Name": "RIDGEWAY MART INC", "DBA Name": "RIDGEWAY MARKET", "Street Number": "577", "Street Name": "RIDGEWAY AVE", "Address Line 2": null, "Address Line 3": null, "City": "ROCHESTER", "State": "NY", "Zip Code": 14615, "Bodega": "#153cff", "color": "#01eaff" }, "geometry": { "type": "Point", "coordinates": [ -77.645409199, 43.193729139 ] } },
{ "type": "Feature", "properties": { "County": "SUFFOLK", "Operation Type": "Store", "Establishment Type": "AC", "Entity Name": "GOLDEN ORANGE DELI CORP", "DBA Name": "GOLDEN ORANGE DELI", "Street Number": "9", "Street Name": "RAILROAD AVE", "Address Line 2": null, "Address Line 3": null, "City": "BABYLON", "State": "NY", "Zip Code": 11702, "Bodega": "#153cff", "color": "#01eaff" }, "geometry": { "type": "Point", "coordinates": [ -73.322942533, 40.700319014 ] } },
{ "type": "Feature", "properties": { "County": "KINGS", "Operation Type": "Store", "Establishment Type": "AC", "Entity Name": "YEMZ DELI & FOOD MARKET CORP", "DBA Name": "YEMZ DELI & FOOD MARKET", "Street Number": "1314", "Street Name": "KINGS HWY", "Address Line 2": null, "Address Line 3": null, "City": "BROOKLYN", "State": "NY", "Zip Code": 11229, "Bodega": "#153cff", "color": "#01eaff" }, "geometry": { "type": "Point", "coordinates": [ -73.959462249, 40.608133041 ] } },
{ "type": "Feature", "properties": { "County": "KINGS", "Operation Type": "Store", "Establishment Type": "AC", "Entity Name": "LENOX DELI BITES CORP", "DBA Name": "LENOX DELI BITES", "Street Number": "787", "Street Name": "ALBANY AVE", "Address Line 2": null, "Address Line 3": null, "City": "BROOKLYN", "State": "NY", "Zip Code": 11203, "Bodega": "#153cff", "color": "#01eaff" }, "geometry": { "type": "Point", "coordinates": [ -73.939248619, 40.654698871 ] } },
{ "type": "Feature", "properties": { "County": "BRONX", "Operation Type": "Store", "Establishment Type": "AC", "Entity Name": "HONEST KING DELI GROCERY CORP", "DBA Name": "HONEST KING DELI GROCERY", "Street Number": "1587", "Street Name": "THIERIOT AVE", "Address Line 2": null, "Address Line 3": null, "City": "BRONX", "State": "NY", "Zip Code": 10460, "Bodega": "#153cff", "color": "#01eaff" }, "geometry": { "type": "Point", "coordinates": [ -73.866311896, 40.840233807 ] } },
{ "type": "Feature", "properties": { "County": "WESTCHESTER", "Operation Type": "Store", "Establishment Type": "AC", "Entity Name": "RANDYS DELI GROCERY CORP", "DBA Name": "RANDYS DELI GROCERY", "Street Number": "31", "Street Name": "VINEYARD AVE", "Address Line 2": null, "Address Line 3": null, "City": "YONKERS", "State": "NY", "Zip Code": 10703, "Bodega": "#153cff", "color": "#01eaff" }, "geometry": { "type": "Point", "coordinates": [ -73.887956819, 40.940707806 ] } },
{ "type": "Feature", "properties": { "County": "NASSAU", "Operation Type": "Store", "Establishment Type": "AC", "Entity Name": "NORTH MAIN DELI CORP", "DBA Name": "NORTH MAIN DELI", "Street Number": "139", "Street Name": "N MAIN ST", "Address Line 2": null, "Address Line 3": null, "City": "FREEPORT", "State": "NY", "Zip Code": 11520, "Bodega": "#153cff", "color": "#01eaff" }, "geometry": { "type": "Point", "coordinates": [ -73.585923823, 40.661505186 ] } },
{ "type": "Feature", "properties": { "County": "CHEMUNG", "Operation Type": "Store", "Establishment Type": "AC", "Entity Name": "NY CITY SMOKE & DELI LLC", "DBA Name": "NY CITY SMOKE & DELI", "Street Number": "3311", "Street Name": "CHAMBERS RD", "Address Line 2": null, "Address Line 3": null, "City": "HORSEHEADS", "State": "NY", "Zip Code": 14845, "Bodega": "#153cff", "color": "#01eaff" }, "geometry": { "type": "Point", "coordinates": [ -76.878674439, 42.159899167 ] } },
{ "type": "Feature", "properties": { "County": "KINGS", "Operation Type": "Store", "Establishment Type": "AC", "Entity Name": "KING CAPITAL DELI GROCERY CORP", "DBA Name": "KING CAPITAL DELI GROCERY", "Street Number": "9527", "Street Name": "CHURCH AVE", "Address Line 2": null, "Address Line 3": null, "City": "BROOKLYN", "State": "NY", "Zip Code": 11212, "Bodega": "#153cff", "color": "#01eaff" }, "geometry": { "type": "Point", "coordinates": [ -73.915722125, 40.655701808 ] } },
{ "type": "Feature", "properties": { "County": "ORANGE", "Operation Type": "Store", "Establishment Type": "AC", "Entity Name": "JHOSTIN GROCERY DELI AND BUTCHER INC", "DBA Name": "JHOSTIN GROCERY DELI AND BUTCHER", "Street Number": "165", "Street Name": "BROADWAY", "Address Line 2": null, "Address Line 3": null, "City": "NEWBURGH", "State": "NY", "Zip Code": 12550, "Bodega": "#153cff", "color": "#01eaff" }, "geometry": { "type": "Point", "coordinates": [ -74.014448958, 41.500014896 ] } },
{ "type": "Feature", "properties": { "County": "KINGS", "Operation Type": "Store", "Establishment Type": "AC", "Entity Name": "MCGREENLAND DELI AND GRILL CORP", "DBA Name": "MCGREENLAND DELI AND GROCERY", "Street Number": "336", "Street Name": "MCGUINESS BLVD", "Address Line 2": null, "Address Line 3": null, "City": "BROOKLYN", "State": "NY", "Zip Code": 11222, "Bodega": "#153cff", "color": "#01eaff" }, "geometry": { "type": "Point", "coordinates": [ -73.952038397, 40.733902366 ] } },
{ "type": "Feature", "properties": { "County": "QUEENS", "Operation Type": "Store", "Establishment Type": "AC", "Entity Name": "EXPRESS STAR DELI CORP", "DBA Name": "EXPRESS STAR DELI", "Street Number": "21457", "Street Name": "JAMAICA AVE", "Address Line 2": null, "Address Line 3": null, "City": "QUEENS VILLAGE", "State": "NY", "Zip Code": 11428, "Bodega": "#153cff", "color": "#01eaff" }, "geometry": { "type": "Point", "coordinates": [ -73.741907605, 40.716989739 ] } },
{ "type": "Feature", "properties": { "County": "KINGS", "Operation Type": "Store", "Establishment Type": "AC", "Entity Name": "24K DELI INC", "DBA Name": "24K DELI", "Street Number": "1057", "Street Name": "FLATBUSH AVE", "Address Line 2": null, "Address Line 3": null, "City": "BROOKLYN", "State": "NY", "Zip Code": 11226, "Bodega": "#153cff", "color": "#01eaff" }, "geometry": { "type": "Point", "coordinates": [ -73.957839931, 40.645059473 ] } },
{ "type": "Feature", "properties": { "County": "QUEENS", "Operation Type": "Store", "Establishment Type": "AC", "Entity Name": "61 ST GREEN APPLE DELI CORP", "DBA Name": "61 ST GREEN APPLE DELI", "Street Number": "6101", "Street Name": "GRAND AVE", "Address Line 2": null, "Address Line 3": null, "City": "MASPETH", "State": "NY", "Zip Code": 11378, "Bodega": "#153cff", "color": "#01eaff" }, "geometry": { "type": "Point", "coordinates": [ -73.904269679, 40.722045871 ] } },
{ "type": "Feature", "properties": { "County": "BROOME", "Operation Type": "Store", "Establishment Type": "AC", "Entity Name": "SPS MART INC", "DBA Name": "SPS MART", "Street Number": "1065", "Street Name": "FRONT ST", "Address Line 2": null, "Address Line 3": null, "City": "BINGHAMTON", "State": "NY", "Zip Code": 13905, "Bodega": "#153cff", "color": "#01eaff" }, "geometry": { "type": "Point", "coordinates": [ -75.902626525, 42.145589128 ] } },
{ "type": "Feature", "properties": { "County": "NASSAU", "Operation Type": "Store", "Establishment Type": "AC", "Entity Name": "POSH CONVENIENCE CORP", "DBA Name": "POSH CONVENIENCE", "Street Number": "968", "Street Name": "HEMPSTEAD TPKE", "Address Line 2": null, "Address Line 3": null, "City": "FRANKLIN SQUARE", "State": "NY", "Zip Code": 11010, "Bodega": "#153cff", "color": "#01eaff" }, "geometry": { "type": "Point", "coordinates": [ -73.67604613, 40.70772124 ] } },
{ "type": "Feature", "properties": { "County": "KINGS", "Operation Type": "Store", "Establishment Type": "AC", "Entity Name": "ALQADIR DELI & GROCERY INC", "DBA Name": "ALQADIR DELI & GROCERY", "Street Number": "1649", "Street Name": "BEDFORD AVE", "Address Line 2": null, "Address Line 3": null, "City": "BROOKLYN", "State": "NY", "Zip Code": 11225, "Bodega": "#153cff", "color": "#01eaff" }, "geometry": { "type": "Point", "coordinates": [ -73.956495558, 40.666264389 ] } },
{ "type": "Feature", "properties": { "County": "KINGS", "Operation Type": "Store", "Establishment Type": "AC", "Entity Name": "WILLIAMSBURG DELI SERVICE LLC", "DBA Name": "WILLIAMSBURG DELI SERVICE", "Street Number": "296", "Street Name": "BROADWAY", "Address Line 2": null, "Address Line 3": null, "City": "BROOKLYN", "State": "NY", "Zip Code": 11211, "Bodega": "#153cff", "color": "#01eaff" }, "geometry": { "type": "Point", "coordinates": [ -73.958238072, 40.708403108 ] } },
{ "type": "Feature", "properties": { "County": "NEW YORK", "Operation Type": "Store", "Establishment Type": "AC", "Entity Name": "LENOX DELI AND CONVENIENCE CORP", "DBA Name": "LENOX DELI AND CONVENIENCE", "Street Number": "100", "Street Name": "LENOX AVE", "Address Line 2": null, "Address Line 3": null, "City": "NEW YORK", "State": "NY", "Zip Code": 10026, "Bodega": "#153cff", "color": "#01eaff" }, "geometry": { "type": "Point", "coordinates": [ -73.949824904, 40.801380542 ] } },
{ "type": "Feature", "properties": { "County": "NEW YORK", "Operation Type": "Store", "Establishment Type": "AC", "Entity Name": "SANTIAGO DELI 152 CORP", "DBA Name": "SANTIAGO DELI 152", "Street Number": "3680", "Street Name": "BROADWAY", "Address Line 2": null, "Address Line 3": null, "City": "NEW YORK", "State": "NY", "Zip Code": 10031, "Bodega": "#153cff", "color": "#01eaff" }, "geometry": { "type": "Point", "coordinates": [ -73.946901799, 40.830839579 ] } },
{ "type": "Feature", "properties": { "County": "NEW YORK", "Operation Type": "Store", "Establishment Type": "AC", "Entity Name": "ORGANIC DELI & KIMCHI INC", "DBA Name": "ORGANIC DELI & KIMCHI", "Street Number": "720", "Street Name": "2ND AVE", "Address Line 2": null, "Address Line 3": null, "City": "NEW YORK", "State": "NY", "Zip Code": 10016, "Bodega": "#153cff", "color": "#01eaff" }, "geometry": { "type": "Point", "coordinates": [ -73.973574859, 40.747650238 ] } },
{ "type": "Feature", "properties": { "County": "KINGS", "Operation Type": "Store", "Establishment Type": "AC", "Entity Name": "PRINCE CONVENIENCE GROCERY CORP", "DBA Name": "PRINCE CONVENIENCE GROCERY", "Street Number": "9801", "Street Name": "AVENUE L", "Address Line 2": null, "Address Line 3": null, "City": "BROOKLYN", "State": "NY", "Zip Code": 11236, "Bodega": "#153cff", "color": "#01eaff" }, "geometry": { "type": "Point", "coordinates": [ -73.894274763, 40.639503696 ] } },
{ "type": "Feature", "properties": { "County": "RICHMOND", "Operation Type": "Store", "Establishment Type": "AC", "Entity Name": "ANOUD DELI CORP", "DBA Name": "ANOUD DELI", "Street Number": "374", "Street Name": "VAN DUZER STREET", "Address Line 2": null, "Address Line 3": null, "City": "STATEN ISLAND", "State": "NY", "Zip Code": 10304, "Bodega": "#153cff", "color": "#01eaff" }, "geometry": { "type": "Point", "coordinates": [ -74.079718419, 40.629094336 ] } },
{ "type": "Feature", "properties": { "County": "BRONX", "Operation Type": "Store", "Establishment Type": "A", "Entity Name": "SKYLINER CONVENIENCE CORP", "DBA Name": "SKYLINER CONVENIENCE", "Street Number": "3815", "Street Name": "E TREMONT AVE", "Address Line 2": null, "Address Line 3": null, "City": "BRONX", "State": "NY", "Zip Code": 10465, "Bodega": "#153cff", "color": "#01eaff" }, "geometry": { "type": "Point", "coordinates": [ -73.82017438, 40.82471421 ] } },
{ "type": "Feature", "properties": { "County": "KINGS", "Operation Type": "Store", "Establishment Type": "A", "Entity Name": "KINGS HWY DELI & GRILL INCORPORATED", "DBA Name": "KINGS HWY DELI & GRILL", "Street Number": "399", "Street Name": "KINGS HWY", "Address Line 2": null, "Address Line 3": null, "City": "BROOKLYN", "State": "NY", "Zip Code": 11223, "Bodega": "#153cff", "color": "#01eaff" }, "geometry": { "type": "Point", "coordinates": [ -73.975353583, 40.604677475 ] } },
{ "type": "Feature", "properties": { "County": "NEW YORK", "Operation Type": "Store", "Establishment Type": "AC", "Entity Name": "J U GOURMET DELI INC", "DBA Name": "J U GOURMET DELI", "Street Number": "2448", "Street Name": "ADAM CLAYTON POWELL BLVD", "Address Line 2": null, "Address Line 3": null, "City": "NEW YORK", "State": "NY", "Zip Code": 10030, "Bodega": "#153cff", "color": "#01eaff" }, "geometry": { "type": "Point", "coordinates": [ -73.940532223, 40.820105924 ] } },
{ "type": "Feature", "properties": { "County": "BRONX", "Operation Type": "Store", "Establishment Type": "A", "Entity Name": "BRONX MINI MART CORP", "DBA Name": "BRONX MINI MART", "Street Number": "3324", "Street Name": "3RD AVE", "Address Line 2": null, "Address Line 3": null, "City": "BRONX", "State": "NY", "Zip Code": 10456, "Bodega": "#153cff", "color": "#01eaff" }, "geometry": { "type": "Point", "coordinates": [ -73.907705505, 40.826120861 ] } },
{ "type": "Feature", "properties": { "County": "ERIE", "Operation Type": "Store", "Establishment Type": "AC", "Entity Name": "ENGLEWOOD EXPRESS MART INC", "DBA Name": "ENGLEWOOD EXPRESS MART", "Street Number": "660", "Street Name": "ENGLEWOOD AVE", "Address Line 2": null, "Address Line 3": null, "City": "BUFFALO", "State": "NY", "Zip Code": 14223, "Bodega": "#153cff", "color": "#01eaff" }, "geometry": { "type": "Point", "coordinates": [ -78.84343286, 42.964369046 ] } },
{ "type": "Feature", "properties": { "County": "KINGS", "Operation Type": "Store", "Establishment Type": "A", "Entity Name": "LUCKY U CONVENIENCE INC", "DBA Name": "LUCKY U CONVENIENCE", "Street Number": "4211", "Street Name": "8TH AVE", "Address Line 2": null, "Address Line 3": null, "City": "BROOKLYN", "State": "NY", "Zip Code": 11232, "Bodega": "#153cff", "color": "#01eaff" }, "geometry": { "type": "Point", "coordinates": [ -73.999191548, 40.645282599 ] } },
{ "type": "Feature", "properties": { "County": "KINGS", "Operation Type": "Store", "Establishment Type": "AC", "Entity Name": "ISLAND GROCERY & DELI LLC", "DBA Name": "ISLAND GROCERY & DELI", "Street Number": "4823", "Street Name": "CHURCH AVE", "Address Line 2": null, "Address Line 3": null, "City": "BROOKLYN", "State": "NY", "Zip Code": 11203, "Bodega": "#153cff", "color": "#01eaff" }, "geometry": { "type": "Point", "coordinates": [ -73.931534753, 40.651817927 ] } },
{ "type": "Feature", "properties": { "County": "KINGS", "Operation Type": "Store", "Establishment Type": "AC", "Entity Name": "SWEET CANDY DELI CORP", "DBA Name": "SWEET CANDY DELI", "Street Number": "597", "Street Name": "FLATBUSH AVE", "Address Line 2": null, "Address Line 3": null, "City": "BROOKLYN", "State": "NY", "Zip Code": 11225, "Bodega": "#153cff", "color": "#01eaff" }, "geometry": { "type": "Point", "coordinates": [ -73.960352491, 40.658897744 ] } },
{ "type": "Feature", "properties": { "County": "BRONX", "Operation Type": "Store", "Establishment Type": "AC", "Entity Name": "KIMBERLY DELI GROCERY CORP", "DBA Name": "KIMBERLY DELI GROCERY", "Street Number": "3340-44", "Street Name": "FORT INDEPENDENCE STREET", "Address Line 2": null, "Address Line 3": null, "City": "BRONX", "State": "NY", "Zip Code": 10463, "Bodega": "#153cff", "color": "#01eaff" }, "geometry": { "type": "Point", "coordinates": [ -73.899431226, 40.879311832 ] } },
{ "type": "Feature", "properties": { "County": "BRONX", "Operation Type": "Store", "Establishment Type": "AC", "Entity Name": "M&A DELI GROCERY 1 INC", "DBA Name": "M&A DELI GROCERY 1", "Street Number": "374", "Street Name": "E 188TH ST", "Address Line 2": null, "Address Line 3": null, "City": "BRONX", "State": "NY", "Zip Code": 10458, "Bodega": "#153cff", "color": "#01eaff" }, "geometry": { "type": "Point", "coordinates": [ -73.893672272, 40.859953491 ] } },
{ "type": "Feature", "properties": { "County": "MONROE", "Operation Type": "Store", "Establishment Type": "AC", "Entity Name": "DREAM TOWN DELI AND CONVENIENCE STORE IN", "DBA Name": "DREAM TOWN DELI", "Street Number": "275", "Street Name": "EAST AVE", "Address Line 2": null, "Address Line 3": null, "City": "ROCHESTER", "State": "NY", "Zip Code": 14604, "Bodega": "#153cff", "color": "#01eaff" }, "geometry": { "type": "Point", "coordinates": [ -77.597487061, 43.155769274 ] } },
{ "type": "Feature", "properties": { "County": "NEW YORK", "Operation Type": "Store", "Establishment Type": "AC", "Entity Name": "LAFAYETTE DELI & CONVENIENCE INC", "DBA Name": "LAYFAYETTE DELI & CONVENIENCE", "Street Number": "107B", "Street Name": "LAFAYETTE ST", "Address Line 2": null, "Address Line 3": null, "City": "NEW YORK", "State": "NY", "Zip Code": 10013, "Bodega": "#153cff", "color": "#01eaff" }, "geometry": { "type": "Point", "coordinates": [ -74.000777488, 40.717949132 ] } },
{ "type": "Feature", "properties": { "County": "ALBANY", "Operation Type": "Store", "Establishment Type": "AC", "Entity Name": "GRAND ST DELI AND GROCERY INC", "DBA Name": "GRAND ST DELI AND GROCERY", "Street Number": "77", "Street Name": "GRAND ST", "Address Line 2": null, "Address Line 3": null, "City": "ALBANY", "State": "NY", "Zip Code": 12202, "Bodega": "#153cff", "color": "#01eaff" }, "geometry": { "type": "Point", "coordinates": [ -73.75700182, 42.645830616 ] } },
{ "type": "Feature", "properties": { "County": "NEW YORK", "Operation Type": "Store", "Establishment Type": "AC", "Entity Name": "CALIFORNIA GRILL AND DELI CORP", "DBA Name": "CALIFORNIA GRILL AND DELI", "Street Number": "1348-B", "Street Name": "AMSTERDAM AVENUE", "Address Line 2": null, "Address Line 3": null, "City": "NEW YORK", "State": "NY", "Zip Code": 10027, "Bodega": "#153cff", "color": "#01eaff" }, "geometry": { "type": "Point", "coordinates": [ -73.955991135, 40.814057584 ] } },
{ "type": "Feature", "properties": { "County": "KINGS", "Operation Type": "Store", "Establishment Type": "AC", "Entity Name": "FIREHOUSE DELI & GRILL #3 CORPORATION", "DBA Name": "FIREHOUSE DELI & GRILL #3", "Street Number": "4", "Street Name": "STANWIX ST STORE", "Address Line 2": null, "Address Line 3": null, "City": "BROOKLYN", "State": "NY", "Zip Code": 11206, "Bodega": "#153cff", "color": "#01eaff" }, "geometry": { "type": "Point", "coordinates": [ -73.933659398, 40.698358151 ] } },
{ "type": "Feature", "properties": { "County": "KINGS", "Operation Type": "Store", "Establishment Type": "AC", "Entity Name": "JIMMY DELI & CONVENIENCE INC", "DBA Name": "JIMMY DELI & CONVENIENCE", "Street Number": "299", "Street Name": "WINTHROP ST", "Address Line 2": null, "Address Line 3": null, "City": "BROOKLYN", "State": "NY", "Zip Code": 11225, "Bodega": "#153cff", "color": "#01eaff" }, "geometry": { "type": "Point", "coordinates": [ -73.950002936, 40.657217382 ] } },
{ "type": "Feature", "properties": { "County": "CHEMUNG", "Operation Type": "Store", "Establishment Type": "AC", "Entity Name": "ELMIRA HEIGHTS DELI INC", "DBA Name": "ELMIRA VALERO", "Street Number": "2204", "Street Name": "COLLEGE AVE", "Address Line 2": null, "Address Line 3": null, "City": "ELMIRA", "State": "NY", "Zip Code": 14903, "Bodega": "#153cff", "color": "#01eaff" }, "geometry": { "type": "Point", "coordinates": [ -76.825910861, 42.130910397 ] } },
{ "type": "Feature", "properties": { "County": "KINGS", "Operation Type": "Store", "Establishment Type": "AC", "Entity Name": "MGB GOURMET DELI INC", "DBA Name": "MGB GOURMET DELI", "Street Number": "15", "Street Name": "MARCUS GARVEY BLVD", "Address Line 2": null, "Address Line 3": null, "City": "BROOKLYN", "State": "NY", "Zip Code": 11206, "Bodega": "#153cff", "color": "#01eaff" }, "geometry": { "type": "Point", "coordinates": [ -73.941176037, 40.69944189 ] } },
{ "type": "Feature", "properties": { "County": "QUEENS", "Operation Type": "Store", "Establishment Type": "AC", "Entity Name": "LINDEN STOP DELI CORP", "DBA Name": "LINDEN STOP DELI", "Street Number": "201-01", "Street Name": "LIINDEN BLVD", "Address Line 2": null, "Address Line 3": null, "City": "SAINT ALBANS", "State": "NY", "Zip Code": 11412, "Bodega": "#153cff", "color": "#01eaff" }, "geometry": { "type": "Point", "coordinates": [ -73.75120389, 40.694878698 ] } },
{ "type": "Feature", "properties": { "County": "BRONX", "Operation Type": "Store", "Establishment Type": "AC", "Entity Name": "MAX FRESH FOOD DELI CORP", "DBA Name": "MAX FRESH FOOD DELI", "Street Number": "870", "Street Name": "PROSPECT AVE", "Address Line 2": null, "Address Line 3": null, "City": "BRONX", "State": "NY", "Zip Code": 10459, "Bodega": "#153cff", "color": "#01eaff" }, "geometry": { "type": "Point", "coordinates": [ -73.90119042, 40.820229724 ] } },
{ "type": "Feature", "properties": { "County": "QUEENS", "Operation Type": "Store", "Establishment Type": "AC", "Entity Name": "HARSH DELI & GRILL INC", "DBA Name": "HARSH DELI & GRILL", "Street Number": "120-03", "Street Name": "JAMAICA AVE", "Address Line 2": null, "Address Line 3": null, "City": "RICHMOND HILL", "State": "NY", "Zip Code": 11418, "Bodega": "#153cff", "color": "#01eaff" }, "geometry": { "type": "Point", "coordinates": [ -73.829930161, 40.700337161 ] } },
{ "type": "Feature", "properties": { "County": "BRONX", "Operation Type": "Store", "Establishment Type": "AC", "Entity Name": "BEST DELI & GRILL II CORP", "DBA Name": "BEST DELI & GRILL II", "Street Number": "201", "Street Name": "W 242ND ST", "Address Line 2": null, "Address Line 3": null, "City": "BRONX", "State": "NY", "Zip Code": 10471, "Bodega": "#153cff", "color": "#01eaff" }, "geometry": { "type": "Point", "coordinates": [ -73.89883544, 40.889624716 ] } },
{ "type": "Feature", "properties": { "County": "ERIE", "Operation Type": "Store", "Establishment Type": "AC", "Entity Name": "BUFFALO KING DELI INC", "DBA Name": "BUFFALO KING DELI", "Street Number": "188", "Street Name": "POTOMAC AVE", "Address Line 2": null, "Address Line 3": null, "City": "BUFFALO", "State": "NY", "Zip Code": 14213, "Bodega": "#153cff", "color": "#01eaff" }, "geometry": { "type": "Point", "coordinates": [ -78.892463557, 42.924164745 ] } },
{ "type": "Feature", "properties": { "County": "BRONX", "Operation Type": "Store", "Establishment Type": "AC", "Entity Name": "OLINVILLE DELI PLAZA CORP", "DBA Name": "OLINVILLE DELI PLAZA", "Street Number": "2220", "Street Name": "OLINVILLE AVE", "Address Line 2": null, "Address Line 3": null, "City": "BRONX", "State": "NY", "Zip Code": 10467, "Bodega": "#153cff", "color": "#01eaff" }, "geometry": { "type": "Point", "coordinates": [ -73.868459507, 40.858645747 ] } },
{ "type": "Feature", "properties": { "County": "ERIE", "Operation Type": "Store", "Establishment Type": "A", "Entity Name": "CLINTON MINI MART INC", "DBA Name": "CLINTON MINI MART", "Street Number": "1096", "Street Name": "CLINTON ST", "Address Line 2": null, "Address Line 3": null, "City": "BUFFALO", "State": "NY", "Zip Code": 14206, "Bodega": "#153cff", "color": "#01eaff" }, "geometry": { "type": "Point", "coordinates": [ -78.834242694, 42.877590727 ] } },
{ "type": "Feature", "properties": { "County": "KINGS", "Operation Type": "Store", "Establishment Type": "AC", "Entity Name": "411 NEW LOTS DELI CORP", "DBA Name": "411 NEW LOTS DELI", "Street Number": "411", "Street Name": "NEW LOTS AVENUE", "Address Line 2": null, "Address Line 3": null, "City": "BROOKLYN", "State": "NY", "Zip Code": 11207, "Bodega": "#153cff", "color": "#01eaff" }, "geometry": { "type": "Point", "coordinates": [ -73.892519844, 40.662228125 ] } },
{ "type": "Feature", "properties": { "County": "ERIE", "Operation Type": "Store", "Establishment Type": "AC", "Entity Name": "ZIPS MARKET & DELI INC", "DBA Name": "ZIPS MARKET & DELI", "Street Number": "896", "Street Name": "NIAGARA ST", "Address Line 2": null, "Address Line 3": null, "City": "BUFFALO", "State": "NY", "Zip Code": 14213, "Bodega": "#153cff", "color": "#01eaff" }, "geometry": { "type": "Point", "coordinates": [ -78.898461731, 42.907591668 ] } },
{ "type": "Feature", "properties": { "County": "WESTCHESTER", "Operation Type": "Store", "Establishment Type": "AC", "Entity Name": "54 VAN CORTLANDT DELI GROCERY INC", "DBA Name": "54 VAN CORTLANDT DELI GROCERY", "Street Number": "54", "Street Name": "VAN CORTLANDT PARK AVE", "Address Line 2": null, "Address Line 3": null, "City": "YONKERS", "State": "NY", "Zip Code": 10701, "Bodega": "#153cff", "color": "#01eaff" }, "geometry": { "type": "Point", "coordinates": [ -73.887980959, 40.930366004 ] } },
{ "type": "Feature", "properties": { "County": "BRONX", "Operation Type": "Store", "Establishment Type": "AC", "Entity Name": "EL TRIANGULO DELI MARKET INC", "DBA Name": "EL TRIANGULO DELI MARKET", "Street Number": "2160", "Street Name": "TIEBOUT AVENUE", "Address Line 2": null, "Address Line 3": null, "City": "BRONX", "State": "NY", "Zip Code": 10457, "Bodega": "#153cff", "color": "#01eaff" }, "geometry": { "type": "Point", "coordinates": [ -73.898394636, 40.854248894 ] } },
{ "type": "Feature", "properties": { "County": "RICHMOND", "Operation Type": "Store", "Establishment Type": "AC", "Entity Name": "ELM MINI MART CORPORATION", "DBA Name": "ELM MINI MART", "Street Number": "169", "Street Name": "ELM ST", "Address Line 2": null, "Address Line 3": null, "City": "STATEN ISLAND", "State": "NY", "Zip Code": 10310, "Bodega": "#153cff", "color": "#01eaff" }, "geometry": { "type": "Point", "coordinates": [ -74.113653225, 40.637602471 ] } },
{ "type": "Feature", "properties": { "County": "QUEENS", "Operation Type": "Store", "Establishment Type": "AC", "Entity Name": "VERY BERRY DELI CORP", "DBA Name": "VERY BERRY DELI", "Street Number": "601", "Street Name": "BEACH 20TH ST", "Address Line 2": null, "Address Line 3": null, "City": "FAR ROCKAWAY", "State": "NY", "Zip Code": 11691, "Bodega": "#153cff", "color": "#01eaff" }, "geometry": { "type": "Point", "coordinates": [ -73.753842597, 40.600842294 ] } },
{ "type": "Feature", "properties": { "County": "BRONX", "Operation Type": "Store", "Establishment Type": "A", "Entity Name": "1086 BOSTON RD DELI CORP", "DBA Name": "1086 BOSTON RD DELI", "Street Number": "1086", "Street Name": "BOSTON RD", "Address Line 2": null, "Address Line 3": null, "City": "BRONX", "State": "NY", "Zip Code": 10456, "Bodega": "#153cff", "color": "#01eaff" }, "geometry": { "type": "Point", "coordinates": [ -73.905027823, 40.826990148 ] } },
{ "type": "Feature", "properties": { "County": "BRONX", "Operation Type": "Store", "Establishment Type": "AC", "Entity Name": "1285 ROYALTY GOURMET DELI & GROC CORP", "DBA Name": "1285 ROYALTY GOURMET", "Street Number": "1285", "Street Name": "SOUTHERN BLVD", "Address Line 2": null, "Address Line 3": null, "City": "BRONX", "State": "NY", "Zip Code": 10459, "Bodega": "#153cff", "color": "#01eaff" }, "geometry": { "type": "Point", "coordinates": [ -73.892079542, 40.830391944 ] } },
{ "type": "Feature", "properties": { "County": "BRONX", "Operation Type": "Store", "Establishment Type": "AC", "Entity Name": "GUNHILL MEXICAN DELI GROCERY LLC", "DBA Name": "GUNHILL MEXICAN DELI GROCERY", "Street Number": "751", "Street Name": "E GUN HILL ROAD STE B", "Address Line 2": null, "Address Line 3": null, "City": "BRONX", "State": "NY", "Zip Code": 10467, "Bodega": "#153cff", "color": "#01eaff" }, "geometry": { "type": "Point", "coordinates": [ -73.863890196, 40.876742276 ] } },
{ "type": "Feature", "properties": { "County": "QUEENS", "Operation Type": "Store", "Establishment Type": "AC", "Entity Name": "LUCKI MART INC", "DBA Name": "LUCKI MART", "Street Number": "161-09", "Street Name": "29TH AVE", "Address Line 2": null, "Address Line 3": null, "City": "FLUSHING", "State": "NY", "Zip Code": 11358, "Bodega": "#153cff", "color": "#01eaff" }, "geometry": { "type": "Point", "coordinates": [ -73.803017714, 40.771348183 ] } },
{ "type": "Feature", "properties": { "County": "BRONX", "Operation Type": "Store", "Establishment Type": "AC", "Entity Name": "6052 DOLPHINS GOURMET DELI CORP", "DBA Name": "6052 DOLPHINS GOURMET DELI", "Street Number": "6052", "Street Name": "RIVERDALE AVE", "Address Line 2": null, "Address Line 3": null, "City": "BRONX", "State": "NY", "Zip Code": 10471, "Bodega": "#153cff", "color": "#01eaff" }, "geometry": { "type": "Point", "coordinates": [ -73.90305665, 40.909979539 ] } },
{ "type": "Feature", "properties": { "County": "NASSAU", "Operation Type": "Store", "Establishment Type": "AC", "Entity Name": "BABYLON CONVENIENCE CORP", "DBA Name": "BABYLON CONVENIENCE", "Street Number": "265", "Street Name": "BABYLON TURNPIKE", "Address Line 2": null, "Address Line 3": null, "City": "ROOSEVELT", "State": "NY", "Zip Code": 11575, "Bodega": "#153cff", "color": "#01eaff" }, "geometry": { "type": "Point", "coordinates": [ -73.581781152, 40.673691929 ] } },
{ "type": "Feature", "properties": { "County": "NEW YORK", "Operation Type": "Store", "Establishment Type": "AC", "Entity Name": "JAY & M DELI CORP", "DBA Name": "JAY & M DELI", "Street Number": "35", "Street Name": "AVE D", "Address Line 2": null, "Address Line 3": null, "City": "NEW YORK", "State": "NY", "Zip Code": 10009, "Bodega": "#153cff", "color": "#01eaff" }, "geometry": { "type": "Point", "coordinates": [ -73.977951395, 40.721179536 ] } },
{ "type": "Feature", "properties": { "County": "BRONX", "Operation Type": "Store", "Establishment Type": "AC", "Entity Name": "HALA DELI CORP", "DBA Name": "HALA DELI", "Street Number": "2086", "Street Name": "ARTHUR AVE", "Address Line 2": null, "Address Line 3": null, "City": "BRONX", "State": "NY", "Zip Code": 10457, "Bodega": "#153cff", "color": "#01eaff" }, "geometry": { "type": "Point", "coordinates": [ -73.891577299, 40.849174029 ] } },
{ "type": "Feature", "properties": { "County": "BRONX", "Operation Type": "Store", "Establishment Type": "A", "Entity Name": "826 SNACK & CONVENIENCE STORE INC", "DBA Name": "826 SNACK AND CONVENIENCE STORE", "Street Number": "3826", "Street Name": "WHITE PLAINS RD", "Address Line 2": null, "Address Line 3": null, "City": "BRONX", "State": "NY", "Zip Code": 10467, "Bodega": "#153cff", "color": "#01eaff" }, "geometry": { "type": "Point", "coordinates": [ -73.862165536, 40.88435778 ] } },
{ "type": "Feature", "properties": { "County": "QUEENS", "Operation Type": "Store", "Establishment Type": "A", "Entity Name": "ZAK ORGANIC CONVENIENCE CORP", "DBA Name": "ZAK ORGANIC CONVENIENCE", "Street Number": "120-78", "Street Name": "QUEENS BLVD", "Address Line 2": null, "Address Line 3": null, "City": "KEW GARDENS", "State": "NY", "Zip Code": 11415, "Bodega": "#153cff", "color": "#01eaff" }, "geometry": { "type": "Point", "coordinates": [ -73.826265341, 40.71223223 ] } },
{ "type": "Feature", "properties": { "County": "BRONX", "Operation Type": "Store", "Establishment Type": "AC", "Entity Name": "TACO GRANDE DELI CORP", "DBA Name": "TACO GRANDE DELI", "Street Number": "1257", "Street Name": "ST LAWRENCE AVE", "Address Line 2": null, "Address Line 3": null, "City": "BRONX", "State": "NY", "Zip Code": 10472, "Bodega": "#153cff", "color": "#01eaff" }, "geometry": { "type": "Point", "coordinates": [ -73.86730096, 40.831253017 ] } },
{ "type": "Feature", "properties": { "County": "NEW YORK", "Operation Type": "Store", "Establishment Type": "AC", "Entity Name": "BROADWAY STARS DELI CORP", "DBA Name": "BROADWAY STARS DELI", "Street Number": "2721", "Street Name": "BROADWAY", "Address Line 2": null, "Address Line 3": null, "City": "NEW YORK", "State": "NY", "Zip Code": 10025, "Bodega": "#153cff", "color": "#01eaff" }, "geometry": { "type": "Point", "coordinates": [ -73.968425018, 40.799997487 ] } },
{ "type": "Feature", "properties": { "County": "ONEIDA", "Operation Type": "Store", "Establishment Type": "A", "Entity Name": "COURT ST EASY MART CORPORATION", "DBA Name": "COURT ST EASY MART", "Street Number": "1020", "Street Name": "COURT ST", "Address Line 2": null, "Address Line 3": null, "City": "UTICA", "State": "NY", "Zip Code": 13502, "Bodega": "#153cff", "color": "#01eaff" }, "geometry": { "type": "Point", "coordinates": [ -75.248035945, 43.104196961 ] } },
{ "type": "Feature", "properties": { "County": "QUEENS", "Operation Type": "Store", "Establishment Type": "AC", "Entity Name": "A AND M DELI GROCERY CORP I", "DBA Name": "A AND M DELI GROCERY", "Street Number": "147-18", "Street Name": "ROCKAWAY BLVD", "Address Line 2": null, "Address Line 3": null, "City": "JAMAICA", "State": "NY", "Zip Code": 11436, "Bodega": "#153cff", "color": "#01eaff" }, "geometry": { "type": "Point", "coordinates": [ -73.790041103, 40.67317925 ] } },
{ "type": "Feature", "properties": { "County": "KINGS", "Operation Type": "Store", "Establishment Type": "AC", "Entity Name": "331 EXPRESS DELI GROCERY CORP", "DBA Name": "331 EXPRESS DELI GROCERY", "Street Number": "331", "Street Name": "11TH ST", "Address Line 2": null, "Address Line 3": null, "City": "BROOKLYN", "State": "NY", "Zip Code": 11215, "Bodega": "#153cff", "color": "#01eaff" }, "geometry": { "type": "Point", "coordinates": [ -73.987138814, 40.667958824 ] } },
{ "type": "Feature", "properties": { "County": "BRONX", "Operation Type": "Store", "Establishment Type": "AC", "Entity Name": "H&S CONVENIENCE CORP", "DBA Name": "H&S CONVENIENCE", "Street Number": "288", "Street Name": "EAST 174TH STREET", "Address Line 2": null, "Address Line 3": null, "City": "BRONX", "State": "NY", "Zip Code": 10457, "Bodega": "#153cff", "color": "#01eaff" }, "geometry": { "type": "Point", "coordinates": [ -73.905071325, 40.844526096 ] } },
{ "type": "Feature", "properties": { "County": "BRONX", "Operation Type": "Store", "Establishment Type": "AC", "Entity Name": "9 STAR DELI AND GROCERY CORP", "DBA Name": "9 STAR DELI AND GROCERY", "Street Number": "900", "Street Name": "ALLERTON AVE", "Address Line 2": null, "Address Line 3": null, "City": "BRONX", "State": "NY", "Zip Code": 10469, "Bodega": "#153cff", "color": "#01eaff" }, "geometry": { "type": "Point", "coordinates": [ -73.861343355, 40.865398501 ] } },
{ "type": "Feature", "properties": { "County": "BRONX", "Operation Type": "Store", "Establishment Type": "AC", "Entity Name": "NUEVA ESPERANZA DELI 2 CORP", "DBA Name": "NUEVA ESPERANZA DELI", "Street Number": "1374", "Street Name": "SHERIDAN AVE", "Address Line 2": null, "Address Line 3": null, "City": "BRONX", "State": "NY", "Zip Code": 10456, "Bodega": "#153cff", "color": "#01eaff" }, "geometry": { "type": "Point", "coordinates": [ -73.912827183, 40.838004221 ] } },
{ "type": "Feature", "properties": { "County": "KINGS", "Operation Type": "Store", "Establishment Type": "AC", "Entity Name": "ORGANIC SNACKS 1 & CONVENIENCE INC", "DBA Name": "ORGANIC SNACKS 1 & CONVENIENCE", "Street Number": "566", "Street Name": "5TH AVE", "Address Line 2": null, "Address Line 3": null, "City": "BROOKLYN", "State": "NY", "Zip Code": 11215, "Bodega": "#153cff", "color": "#01eaff" }, "geometry": { "type": "Point", "coordinates": [ -73.989846061, 40.6651848 ] } },
{ "type": "Feature", "properties": { "County": "NEW YORK", "Operation Type": "Store", "Establishment Type": "AC", "Entity Name": "TRIBECA OLIVE BRANCH DELI INC", "DBA Name": "TRIBECA OLIVE BRANCH DELI", "Street Number": "146", "Street Name": "CHAMBERS ST", "Address Line 2": null, "Address Line 3": null, "City": "NEW YORK", "State": "NY", "Zip Code": 10007, "Bodega": "#153cff", "color": "#01eaff" }, "geometry": { "type": "Point", "coordinates": [ -74.00976381, 40.715645743 ] } },
{ "type": "Feature", "properties": { "County": "QUEENS", "Operation Type": "Store", "Establishment Type": "AC", "Entity Name": "34-61 DELI CORP", "DBA Name": "34-61 DELI", "Street Number": "34-61", "Street Name": "JUNCTION BLVD", "Address Line 2": null, "Address Line 3": null, "City": "JACKSON HEIGHTS", "State": "NY", "Zip Code": 11372, "Bodega": "#153cff", "color": "#01eaff" }, "geometry": { "type": "Point", "coordinates": [ -73.87166986, 40.753476541 ] } },
{ "type": "Feature", "properties": { "County": "SULLIVAN", "Operation Type": "Store", "Establishment Type": "AC", "Entity Name": "EXTRA FOOD MART INC", "DBA Name": "EXTRA FOOD MART", "Street Number": "27", "Street Name": "MILL ST", "Address Line 2": null, "Address Line 3": null, "City": "LIBERTY", "State": "NY", "Zip Code": 12754, "Bodega": "#153cff", "color": "#01eaff" }, "geometry": { "type": "Point", "coordinates": [ -74.741310335, 41.79686159 ] } },
{ "type": "Feature", "properties": { "County": "RICHMOND", "Operation Type": "Store", "Establishment Type": "AC", "Entity Name": "NY DELI & GRILL CORP", "DBA Name": "NY DELI & GRILL", "Street Number": "341", "Street Name": "HEBERTON AVE", "Address Line 2": null, "Address Line 3": null, "City": "STATEN ISLAND", "State": "NY", "Zip Code": 10302, "Bodega": "#153cff", "color": "#01eaff" }, "geometry": { "type": "Point", "coordinates": [ -74.134029296, 40.632622321 ] } },
{ "type": "Feature", "properties": { "County": "BRONX", "Operation Type": "Store", "Establishment Type": "AC", "Entity Name": "NAJIM GOURMET DELI INC", "DBA Name": "NAJIM GOURMET DELI", "Street Number": "526", "Street Name": "MORRIS PARK AVE", "Address Line 2": null, "Address Line 3": null, "City": "BRONX", "State": "NY", "Zip Code": 10460, "Bodega": "#153cff", "color": "#01eaff" }, "geometry": { "type": "Point", "coordinates": [ -73.871468191, 40.842322619 ] } },
{ "type": "Feature", "properties": { "County": "NEW YORK", "Operation Type": "Store", "Establishment Type": "AC", "Entity Name": "NEW 382 FARMERS DELI INC", "DBA Name": "NEW 382 FARMERS", "Street Number": "382", "Street Name": "8TH AVENUE", "Address Line 2": null, "Address Line 3": null, "City": "NEW YORK", "State": "NY", "Zip Code": 10001, "Bodega": "#153cff", "color": "#01eaff" }, "geometry": { "type": "Point", "coordinates": [ -73.995519771, 40.749094524 ] } },
{ "type": "Feature", "properties": { "County": "BRONX", "Operation Type": "Store", "Establishment Type": "AC", "Entity Name": "SAM 4 DELI GROCERY INC", "DBA Name": "SAM 4 DELI GROCERY", "Street Number": "2039", "Street Name": "GRAND CONCOURSE", "Address Line 2": null, "Address Line 3": null, "City": "BRONX", "State": "NY", "Zip Code": 10453, "Bodega": "#153cff", "color": "#01eaff" }, "geometry": { "type": "Point", "coordinates": [ -73.904190135, 40.852217456 ] } },
{ "type": "Feature", "properties": { "County": "QUEENS", "Operation Type": "Store", "Establishment Type": "AC", "Entity Name": "TASTY CHOICE DELI & GROCERY CORP", "DBA Name": "TASTY CHOICE DELI & GROCERY", "Street Number": "219-15", "Street Name": "JAMAICA AVE", "Address Line 2": null, "Address Line 3": null, "City": "QUEENS VILLAGE", "State": "NY", "Zip Code": 11428, "Bodega": "#153cff", "color": "#01eaff" }, "geometry": { "type": "Point", "coordinates": [ -73.735668032, 40.718527777 ] } },
{ "type": "Feature", "properties": { "County": "RICHMOND", "Operation Type": "Store", "Establishment Type": "AC", "Entity Name": "LA MILPA DELI & GROCERY LLC", "DBA Name": "LA MILPA DELI & GROCERY", "Street Number": "1414", "Street Name": "FOREST AVE", "Address Line 2": null, "Address Line 3": null, "City": "STATEN ISLAND", "State": "NY", "Zip Code": 10302, "Bodega": "#153cff", "color": "#01eaff" }, "geometry": { "type": "Point", "coordinates": [ -74.135902568, 40.624878155 ] } },
{ "type": "Feature", "properties": { "County": "NEW YORK", "Operation Type": "Store", "Establishment Type": "AC", "Entity Name": "CENTRAL CAFE & DELI INC", "DBA Name": "CENTRAL CAFE & DELI", "Street Number": "159", "Street Name": "W 50TH ST", "Address Line 2": null, "Address Line 3": null, "City": "NEW YORK", "State": "NY", "Zip Code": 10019, "Bodega": "#153cff", "color": "#01eaff" }, "geometry": { "type": "Point", "coordinates": [ -73.982881873, 40.761048543 ] } },
{ "type": "Feature", "properties": { "County": "QUEENS", "Operation Type": "Store", "Establishment Type": "AC", "Entity Name": "9402 DELI AND GRILL CORP", "DBA Name": "9402 DELI AND GRILL", "Street Number": "94-02", "Street Name": "78TH ST", "Address Line 2": null, "Address Line 3": null, "City": "OZONE PARK", "State": "NY", "Zip Code": 11416, "Bodega": "#153cff", "color": "#01eaff" }, "geometry": { "type": "Point", "coordinates": [ -73.861728419, 40.684285187 ] } },
{ "type": "Feature", "properties": { "County": "NEW YORK", "Operation Type": "Store", "Establishment Type": "AC", "Entity Name": "600 DELI CORP", "DBA Name": "600 DELI", "Street Number": "600", "Street Name": "10TH AVE", "Address Line 2": null, "Address Line 3": null, "City": "NEW YORK", "State": "NY", "Zip Code": 10036, "Bodega": "#153cff", "color": "#01eaff" }, "geometry": { "type": "Point", "coordinates": [ -73.994649478, 40.760463025 ] } },
{ "type": "Feature", "properties": { "County": "QUEENS", "Operation Type": "Store", "Establishment Type": "A", "Entity Name": "OUR DREAM DELI GROCERY LLC", "DBA Name": "OUR DREAM DELI GROCERY", "Street Number": "108-42", "Street Name": "ROOSEVELT AVE", "Address Line 2": null, "Address Line 3": null, "City": "CORONA", "State": "NY", "Zip Code": 11368, "Bodega": "#153cff", "color": "#01eaff" }, "geometry": { "type": "Point", "coordinates": [ -73.857163132, 40.751047717 ] } },
{ "type": "Feature", "properties": { "County": "QUEENS", "Operation Type": "Store", "Establishment Type": "A", "Entity Name": "YAHYA PLUS CONVENIENCE STORE CORP", "DBA Name": "YAHYA CONVENIENCE", "Street Number": "89-58", "Street Name": "FRANCIS LEWIS BLVD", "Address Line 2": null, "Address Line 3": null, "City": "QUEENS VILLAGE", "State": "NY", "Zip Code": 11427, "Bodega": "#153cff", "color": "#01eaff" }, "geometry": { "type": "Point", "coordinates": [ -73.757524348, 40.718175066 ] } },
{ "type": "Feature", "properties": { "County": "BRONX", "Operation Type": "Store", "Establishment Type": "AC", "Entity Name": "ONE BEST DELI & MORE CORP", "DBA Name": "ONE BEST DELI & MORE", "Street Number": "3807", "Street Name": "E TREMONT FL 1", "Address Line 2": null, "Address Line 3": null, "City": "BRONX", "State": "NY", "Zip Code": 10465, "Bodega": "#153cff", "color": "#01eaff" }, "geometry": { "type": "Point", "coordinates": [ -73.820271023, 40.824913867 ] } },
{ "type": "Feature", "properties": { "County": "WESTCHESTER", "Operation Type": "Store", "Establishment Type": "AC", "Entity Name": "SEBASTIAN GROCERY & DELI CORP", "DBA Name": "SEBASTIAN GROCERY & DELI", "Street Number": "27", "Street Name": "PIER STREET", "Address Line 2": null, "Address Line 3": null, "City": "YONKERS", "State": "NY", "Zip Code": 10705, "Bodega": "#153cff", "color": "#01eaff" }, "geometry": { "type": "Point", "coordinates": [ -73.902443132, 40.923390651 ] } },
{ "type": "Feature", "properties": { "County": "NEW YORK", "Operation Type": "Store", "Establishment Type": "AC", "Entity Name": "WEST 3RD NYC DELI INC", "DBA Name": "121 GOURMET DELI", "Street Number": "121", "Street Name": "W 3RD ST", "Address Line 2": null, "Address Line 3": null, "City": "NEW YORK", "State": "NY", "Zip Code": 10012, "Bodega": "#153cff", "color": "#01eaff" }, "geometry": { "type": "Point", "coordinates": [ -74.000375827, 40.730661629 ] } },
{ "type": "Feature", "properties": { "County": "RICHMOND", "Operation Type": "Store", "Establishment Type": "AC", "Entity Name": "OMW THE HIGH STATION DELI CORP", "DBA Name": "OMW THE HIGH STATION DELI", "Street Number": "425", "Street Name": "VANDERBILT AVE", "Address Line 2": null, "Address Line 3": null, "City": "STATEN ISLAND", "State": "NY", "Zip Code": 10304, "Bodega": "#153cff", "color": "#01eaff" }, "geometry": { "type": "Point", "coordinates": [ -74.084328215, 40.615621181 ] } },
{ "type": "Feature", "properties": { "County": "QUEENS", "Operation Type": "Store", "Establishment Type": "AC", "Entity Name": "NUNEZ GROCERY AND DELI INC", "DBA Name": "NUNEZ GROCERY AND DELI", "Street Number": "109-59", "Street Name": "LEFFERTS BLVD", "Address Line 2": null, "Address Line 3": null, "City": "SOUTH OZONE PARK", "State": "NY", "Zip Code": 11420, "Bodega": "#153cff", "color": "#01eaff" }, "geometry": { "type": "Point", "coordinates": [ -73.821270901, 40.680681179 ] } },
{ "type": "Feature", "properties": { "County": "ONONDAGA", "Operation Type": "Store", "Establishment Type": "AC", "Entity Name": "CLUB MART 1 INC", "DBA Name": "CLUB MART", "Street Number": "3056", "Street Name": "BURNET AVE", "Address Line 2": "SUITE 11", "Address Line 3": null, "City": "SYRACUSE", "State": "NY", "Zip Code": 13206, "Bodega": "#153cff", "color": "#01eaff" }, "geometry": { "type": "Point", "coordinates": [ -76.094092343, 43.060460316 ] } },
{ "type": "Feature", "properties": { "County": "NASSAU", "Operation Type": "Store", "Establishment Type": "AC", "Entity Name": "GC MINI MART CORP", "DBA Name": "GC MINI MART", "Street Number": "40", "Street Name": "EAST AVE", "Address Line 2": null, "Address Line 3": null, "City": "GLEN COVE", "State": "NY", "Zip Code": 11542, "Bodega": "#153cff", "color": "#01eaff" }, "geometry": { "type": "Point", "coordinates": [ -73.608041822, 40.857036966 ] } },
{ "type": "Feature", "properties": { "County": "ERIE", "Operation Type": "Store", "Establishment Type": "AC", "Entity Name": "190 EXPRESS DELI 1 INC", "DBA Name": "190 EXPRESS DELI 1", "Street Number": "325", "Street Name": "NIAGARA ST", "Address Line 2": null, "Address Line 3": null, "City": "BUFFALO", "State": "NY", "Zip Code": 14201, "Bodega": "#153cff", "color": "#01eaff" }, "geometry": { "type": "Point", "coordinates": [ -78.884138399, 42.89324273 ] } },
{ "type": "Feature", "properties": { "County": "CLINTON", "Operation Type": "Store", "Establishment Type": "AC", "Entity Name": "PLATTSBURGH MART INC", "DBA Name": "PLATTSBURGH FOOD MART", "Street Number": "6054", "Street Name": "NYS RT 22", "Address Line 2": null, "Address Line 3": null, "City": "PLATTSBURGH", "State": "NY", "Zip Code": 12901, "Bodega": "#153cff", "color": "#01eaff" }, "geometry": { "type": "Point", "coordinates": [ -73.469500948, 44.721339459 ] } },
{ "type": "Feature", "properties": { "County": "MONROE", "Operation Type": "Store", "Establishment Type": "AC", "Entity Name": "NEPALI MART LLC", "DBA Name": "NEPALI MART", "Street Number": "201", "Street Name": "SCOTTSVILLE W HENRIETTA RD", "Address Line 2": null, "Address Line 3": null, "City": "WEST HENRIETTA", "State": "NY", "Zip Code": 14586, "Bodega": "#153cff", "color": "#01eaff" }, "geometry": { "type": "Point", "coordinates": [ -77.707666204, 43.035656839 ] } },
{ "type": "Feature", "properties": { "County": "HERKIMER", "Operation Type": "Store", "Establishment Type": "AC", "Entity Name": "BELTRES CONVENIENCE & DELI LLC", "DBA Name": "BELTRES CONVENIENCE & DELI", "Street Number": "232", "Street Name": "N WASHINGTON ST", "Address Line 2": null, "Address Line 3": null, "City": "HERKIMER", "State": "NY", "Zip Code": 13350, "Bodega": "#153cff", "color": "#01eaff" }, "geometry": { "type": "Point", "coordinates": [ -74.986586196, 43.028592194 ] } },
{ "type": "Feature", "properties": { "County": "BRONX", "Operation Type": "Store", "Establishment Type": "AC", "Entity Name": "WHEELER DELI GROCERY CORPORATION", "DBA Name": "WHEELER DELI GROCERY", "Street Number": "1209", "Street Name": "WHEELER AVE", "Address Line 2": null, "Address Line 3": null, "City": "BRONX", "State": "NY", "Zip Code": 10472, "Bodega": "#153cff", "color": "#01eaff" }, "geometry": { "type": "Point", "coordinates": [ -73.880316212, 40.828844561 ] } },
{ "type": "Feature", "properties": { "County": "QUEENS", "Operation Type": "Store", "Establishment Type": "AC", "Entity Name": "GREEN FOOD MART INC", "DBA Name": "GREEN FOOD MART", "Street Number": "89-20", "Street Name": "163RD STREET", "Address Line 2": null, "Address Line 3": null, "City": "JAMAICA", "State": "NY", "Zip Code": 11432, "Bodega": "#153cff", "color": "#01eaff" }, "geometry": { "type": "Point", "coordinates": [ -73.797957978, 40.706331521 ] } },
{ "type": "Feature", "properties": { "County": "SCHENECTADY", "Operation Type": "Store", "Establishment Type": "AC", "Entity Name": "Z MINI MARKET AND DELI CORPORATION", "DBA Name": "Z MINI MARKET AND DELI", "Street Number": "534", "Street Name": "KINGS RD", "Address Line 2": null, "Address Line 3": null, "City": "SCHENECTADY", "State": "NY", "Zip Code": 12304, "Bodega": "#153cff", "color": "#01eaff" }, "geometry": { "type": "Point", "coordinates": [ -73.912696007, 42.77201384 ] } },
{ "type": "Feature", "properties": { "County": "NEW YORK", "Operation Type": "Store", "Establishment Type": "AC", "Entity Name": "STEVE DELI FOOD CORPORATION", "DBA Name": "STEVE DELI FOOD", "Street Number": "2923", "Street Name": "FREDERICK DOUGLAS BLVD", "Address Line 2": null, "Address Line 3": null, "City": "NEW YORK", "State": "NY", "Zip Code": 10039, "Bodega": "#153cff", "color": "#01eaff" }, "geometry": { "type": "Point", "coordinates": [ -73.937592774, 40.829074057 ] } },
{ "type": "Feature", "properties": { "County": "DUTCHESS", "Operation Type": "Store", "Establishment Type": "AC", "Entity Name": "HOPEWELL DELI & JUICE BAR CORP", "DBA Name": "HOPEWELL DELI & JUICE BAR", "Street Number": "410", "Street Name": "ROUTE 376 UNIT #2", "Address Line 2": null, "Address Line 3": null, "City": "HOPEWELL JUNCTION", "State": "NY", "Zip Code": 12533, "Bodega": "#153cff", "color": "#01eaff" }, "geometry": { "type": "Point", "coordinates": [ -73.807690709, 41.578982902 ] } },
{ "type": "Feature", "properties": { "County": "NEW YORK", "Operation Type": "Store", "Establishment Type": "AC", "Entity Name": "116 CONVENIENCE INC", "DBA Name": "116 CONVENIENCE", "Street Number": "116", "Street Name": "ELDRIDGE ST", "Address Line 2": null, "Address Line 3": null, "City": "NEW YORK", "State": "NY", "Zip Code": 10002, "Bodega": "#153cff", "color": "#01eaff" }, "geometry": { "type": "Point", "coordinates": [ -73.991820502, 40.718240864 ] } },
{ "type": "Feature", "properties": { "County": "QUEENS", "Operation Type": "Store", "Establishment Type": "AC", "Entity Name": "PATRON DELI INC", "DBA Name": "PATRON DELI", "Street Number": "25-75", "Street Name": "COLLEGE POINT BLVD", "Address Line 2": null, "Address Line 3": null, "City": "FLUSHING", "State": "NY", "Zip Code": 11354, "Bodega": "#153cff", "color": "#01eaff" }, "geometry": { "type": "Point", "coordinates": [ -73.846448126, 40.774762426 ] } },
{ "type": "Feature", "properties": { "County": "ULSTER", "Operation Type": "Store", "Establishment Type": "AC", "Entity Name": "NEW PALTZ GOURMET DELI INC", "DBA Name": "NEW PALTZ GOURMET DELI", "Street Number": "186", "Street Name": "MAIN ST", "Address Line 2": null, "Address Line 3": null, "City": "NEW PALTZ", "State": "NY", "Zip Code": 12561, "Bodega": "#153cff", "color": "#01eaff" }, "geometry": { "type": "Point", "coordinates": [ -74.078665233, 41.745621549 ] } },
{ "type": "Feature", "properties": { "County": "KINGS", "Operation Type": "Store", "Establishment Type": "AC", "Entity Name": "U FARMER DELI CORP", "DBA Name": "U FARMER DELI", "Street Number": "4010", "Street Name": "AVENUE U", "Address Line 2": null, "Address Line 3": null, "City": "BROOKLYN", "State": "NY", "Zip Code": 11234, "Bodega": "#153cff", "color": "#01eaff" }, "geometry": { "type": "Point", "coordinates": [ -73.924279629, 40.608363962 ] } },
{ "type": "Feature", "properties": { "County": "KINGS", "Operation Type": "Store", "Establishment Type": "AC", "Entity Name": "F & N BRUKELEN DELI CORP", "DBA Name": "F & N BRUKELEN DELI", "Street Number": "10319", "Street Name": "GLENWOOD RD", "Address Line 2": null, "Address Line 3": null, "City": "BROOKLYN", "State": "NY", "Zip Code": 11236, "Bodega": "#153cff", "color": "#01eaff" }, "geometry": { "type": "Point", "coordinates": [ -73.897410265, 40.648512063 ] } },
{ "type": "Feature", "properties": { "County": "KINGS", "Operation Type": "Store", "Establishment Type": "AC", "Entity Name": "AMERICAN EXPRESS DELI CORP", "DBA Name": "AMERICAN EXPRESS DELI", "Street Number": "1115", "Street Name": "MANHATTAN AVE", "Address Line 2": null, "Address Line 3": null, "City": "BROOKLYN", "State": "NY", "Zip Code": 11222, "Bodega": "#153cff", "color": "#01eaff" }, "geometry": { "type": "Point", "coordinates": [ -73.955487047, 40.736685912 ] } },
{ "type": "Feature", "properties": { "County": "BRONX", "Operation Type": "Store", "Establishment Type": "AC", "Entity Name": "BRONX FAMOUS DELI CORP", "DBA Name": "BRONX FAMOUS DELI", "Street Number": "782", "Street Name": "E 163RD ST", "Address Line 2": null, "Address Line 3": null, "City": "BRONX", "State": "NY", "Zip Code": 10456, "Bodega": "#153cff", "color": "#01eaff" }, "geometry": { "type": "Point", "coordinates": [ -73.902965791, 40.822522091 ] } },
{ "type": "Feature", "properties": { "County": "QUEENS", "Operation Type": "Store", "Establishment Type": "AC", "Entity Name": "ABU KHALIL DELI & GRILL CORP", "DBA Name": "ABU KHALIL DELI & GRILL", "Street Number": "155-27", "Street Name": "JAMAICA AVE", "Address Line 2": null, "Address Line 3": null, "City": "JAMAICA", "State": "NY", "Zip Code": 11432, "Bodega": "#153cff", "color": "#01eaff" }, "geometry": { "type": "Point", "coordinates": [ -73.800583945, 40.703380085 ] } },
{ "type": "Feature", "properties": { "County": "QUEENS", "Operation Type": "Store", "Establishment Type": "AC", "Entity Name": "PUERTO PLATA DELI GROCERY INC", "DBA Name": "PUERTO PLATA DELI GROCERY", "Street Number": "202-19", "Street Name": "JAMAICA AVE", "Address Line 2": null, "Address Line 3": null, "City": "HOLLIS", "State": "NY", "Zip Code": 11423, "Bodega": "#153cff", "color": "#01eaff" }, "geometry": { "type": "Point", "coordinates": [ -73.756330513, 40.713660908 ] } },
{ "type": "Feature", "properties": { "County": "BRONX", "Operation Type": "Store", "Establishment Type": "AC", "Entity Name": "174TH GRAND FOODMART CORP", "DBA Name": "174TH GRAND FOODMART", "Street Number": "1645", "Street Name": "GRAND AVE", "Address Line 2": null, "Address Line 3": null, "City": "BRONX", "State": "NY", "Zip Code": 10453, "Bodega": "#153cff", "color": "#01eaff" }, "geometry": { "type": "Point", "coordinates": [ -73.915259109, 40.847060741 ] } },
{ "type": "Feature", "properties": { "County": "KINGS", "Operation Type": "Store", "Establishment Type": "A", "Entity Name": "HEGEMAN CONVENIENCE CORP", "DBA Name": "HEGEMAN CONVENIENCE", "Street Number": "622", "Street Name": "CHESTER STREET", "Address Line 2": null, "Address Line 3": null, "City": "BROOKLYN", "State": "NY", "Zip Code": 11212, "Bodega": "#153cff", "color": "#01eaff" }, "geometry": { "type": "Point", "coordinates": [ -73.908431294, 40.656245123 ] } },
{ "type": "Feature", "properties": { "County": "BRONX", "Operation Type": "Store", "Establishment Type": "A", "Entity Name": "TOP HELL MINI MART MARKET CORP", "DBA Name": "TOP HELL MINI MART MARKET", "Street Number": "708", "Street Name": "CASTLE HILL AVE", "Address Line 2": null, "Address Line 3": null, "City": "BRONX", "State": "NY", "Zip Code": 10473, "Bodega": "#153cff", "color": "#01eaff" }, "geometry": { "type": "Point", "coordinates": [ -73.848378981, 40.82139133 ] } },
{ "type": "Feature", "properties": { "County": "KINGS", "Operation Type": "Store", "Establishment Type": "A", "Entity Name": "ONE STOP FAMILY MART INC", "DBA Name": "ONE STOP FAMILY MART", "Street Number": "365", "Street Name": "KNICKERBOCKER AVE", "Address Line 2": null, "Address Line 3": null, "City": "BROOKLYN", "State": "NY", "Zip Code": 11237, "Bodega": "#153cff", "color": "#01eaff" }, "geometry": { "type": "Point", "coordinates": [ -73.921351579, 40.700656385 ] } },
{ "type": "Feature", "properties": { "County": "NEW YORK", "Operation Type": "Store", "Establishment Type": "AC", "Entity Name": "CAPA DELI & GROCERY LLC", "DBA Name": "CAPA DELI & GROCERY", "Street Number": "144", "Street Name": "SHERMAN AVE", "Address Line 2": null, "Address Line 3": null, "City": "NEW YORK", "State": "NY", "Zip Code": 10034, "Bodega": "#153cff", "color": "#01eaff" }, "geometry": { "type": "Point", "coordinates": [ -73.923688873, 40.864609303 ] } },
{ "type": "Feature", "properties": { "County": "NASSAU", "Operation Type": "Store", "Establishment Type": "AC", "Entity Name": "MORONTA MINI MART INC", "DBA Name": "MORONTA MINI MART", "Street Number": "994", "Street Name": "PROSPECT AVE", "Address Line 2": null, "Address Line 3": null, "City": "WESTBURY", "State": "NY", "Zip Code": 11590, "Bodega": "#153cff", "color": "#01eaff" }, "geometry": { "type": "Point", "coordinates": [ -73.56035575, 40.762781836 ] } },
{ "type": "Feature", "properties": { "County": "QUEENS", "Operation Type": "Store", "Establishment Type": "AC", "Entity Name": "SAMS GLENDALE SMOKE N CONVENIENCE CORP", "DBA Name": "SAMS GLENDALE SMOKE N CONVENIENCE", "Street Number": "64-20", "Street Name": "MYRTLE AVE", "Address Line 2": null, "Address Line 3": null, "City": "RIDGEWOOD", "State": "NY", "Zip Code": 11385, "Bodega": "#153cff", "color": "#01eaff" }, "geometry": { "type": "Point", "coordinates": [ -73.891656089, 40.70093697 ] } },
{ "type": "Feature", "properties": { "County": "ALBANY", "Operation Type": "Store", "Establishment Type": "AC", "Entity Name": "SOLOMON DELI MART INC", "DBA Name": "SOLOMON DELI MART", "Street Number": "32", "Street Name": "N SWAN ST", "Address Line 2": null, "Address Line 3": null, "City": "ALBANY", "State": "NY", "Zip Code": 12210, "Bodega": "#153cff", "color": "#01eaff" }, "geometry": { "type": "Point", "coordinates": [ -73.752949673, 42.659677478 ] } },
{ "type": "Feature", "properties": { "County": "RICHMOND", "Operation Type": "Store", "Establishment Type": "AC", "Entity Name": "SOUTH SHORE DELI & CONVENIENCE 1 CORP", "DBA Name": "SOUTH SHORE DELI & CONVENIENCE 1", "Street Number": "7344", "Street Name": "AMBOY RD", "Address Line 2": null, "Address Line 3": null, "City": "STATEN ISLAND", "State": "NY", "Zip Code": 10307, "Bodega": "#153cff", "color": "#01eaff" }, "geometry": { "type": "Point", "coordinates": [ -74.241932805, 40.510750665 ] } },
{ "type": "Feature", "properties": { "County": "SUFFOLK", "Operation Type": "Store", "Establishment Type": "AC", "Entity Name": "T & R DELI BARN INC", "DBA Name": "T & R DELI BARN", "Street Number": "2647", "Street Name": "MIDDLE COUNTRY RD", "Address Line 2": null, "Address Line 3": null, "City": "CENTEREACH", "State": "NY", "Zip Code": 11720, "Bodega": "#153cff", "color": "#01eaff" }, "geometry": { "type": "Point", "coordinates": [ -73.106375864, 40.859016604 ] } },
{ "type": "Feature", "properties": { "County": "KINGS", "Operation Type": "Store", "Establishment Type": "AC", "Entity Name": "CLASSIC DELI & ORGANIC CORP", "DBA Name": "CLASSIC DELI & ORGANIC", "Street Number": "86", "Street Name": "LEWIS AVE", "Address Line 2": null, "Address Line 3": null, "City": "BROOKLYN", "State": "NY", "Zip Code": 11206, "Bodega": "#153cff", "color": "#01eaff" }, "geometry": { "type": "Point", "coordinates": [ -73.937459921, 40.694362708 ] } },
{ "type": "Feature", "properties": { "County": "KINGS", "Operation Type": "Store", "Establishment Type": "AC", "Entity Name": "BROOKLYN HEIGHTS DELI CORP", "DBA Name": "BROOKLYN HEIGHTS DELI", "Street Number": "302", "Street Name": "STUYVESANT AVE", "Address Line 2": null, "Address Line 3": null, "City": "BROOKLYN", "State": "NY", "Zip Code": 11233, "Bodega": "#153cff", "color": "#01eaff" }, "geometry": { "type": "Point", "coordinates": [ -73.932489368, 40.684434511 ] } },
{ "type": "Feature", "properties": { "County": "RENSSELAER", "Operation Type": "Store", "Establishment Type": "AC", "Entity Name": "DELI ON BROADWAY INC", "DBA Name": "DELI ON BROADWAY", "Street Number": "904", "Street Name": "BROADWAY", "Address Line 2": null, "Address Line 3": null, "City": "RENSSELAER", "State": "NY", "Zip Code": 12144, "Bodega": "#153cff", "color": "#01eaff" }, "geometry": { "type": "Point", "coordinates": [ -73.738934628, 42.647432817 ] } },
{ "type": "Feature", "properties": { "County": "KINGS", "Operation Type": "Store", "Establishment Type": "AC", "Entity Name": "OCEAN DELI & GRILL CORP 1", "DBA Name": "OCEAN DELI & GRILLTHE", "Street Number": "1925", "Street Name": "CHURCH AVE", "Address Line 2": null, "Address Line 3": null, "City": "BROOKLYN", "State": "NY", "Zip Code": 11226, "Bodega": "#153cff", "color": "#01eaff" }, "geometry": { "type": "Point", "coordinates": [ -73.961469295, 40.650115898 ] } },
{ "type": "Feature", "properties": { "County": "NEW YORK", "Operation Type": "Store", "Establishment Type": "AC", "Entity Name": "RIDGE MINI MARKET AND DELI 1 CORP", "DBA Name": "RIDGE MINI MARKET AND DELI 1", "Street Number": "129", "Street Name": "RIDGE ST", "Address Line 2": null, "Address Line 3": null, "City": "NEW YORK", "State": "NY", "Zip Code": 10002, "Bodega": "#153cff", "color": "#01eaff" }, "geometry": { "type": "Point", "coordinates": [ -73.982999052, 40.719576311 ] } },
{ "type": "Feature", "properties": { "County": "QUEENS", "Operation Type": "Store", "Establishment Type": "AC", "Entity Name": "FOREST DELI AND CONVENIENCE CORPORATION", "DBA Name": "FOREST DELI AND CONVENIENCE", "Street Number": "7220", "Street Name": "FOREST AVE", "Address Line 2": null, "Address Line 3": null, "City": "RIDGEWOOD", "State": "NY", "Zip Code": 11385, "Bodega": "#153cff", "color": "#01eaff" }, "geometry": { "type": "Point", "coordinates": [ -73.898973909, 40.699652611 ] } },
{ "type": "Feature", "properties": { "County": "BRONX", "Operation Type": "Store", "Establishment Type": "AC", "Entity Name": "TOP DELI & MORE CORP", "DBA Name": "TOP DELI & MORE", "Street Number": "743", "Street Name": "BURKE AVE", "Address Line 2": null, "Address Line 3": null, "City": "BRONX", "State": "NY", "Zip Code": 10467, "Bodega": "#153cff", "color": "#01eaff" }, "geometry": { "type": "Point", "coordinates": [ -73.86507875, 40.871561882 ] } },
{ "type": "Feature", "properties": { "County": "KINGS", "Operation Type": "Store", "Establishment Type": "AC", "Entity Name": "N & M S BROOKLYN DELI INC", "DBA Name": "N & M'S BROOKLYN DELI", "Street Number": "2423", "Street Name": "MERMAID AVE", "Address Line 2": null, "Address Line 3": null, "City": "BROOKLYN", "State": "NY", "Zip Code": 11224, "Bodega": "#153cff", "color": "#01eaff" }, "geometry": { "type": "Point", "coordinates": [ -73.991938855, 40.575970211 ] } },
{ "type": "Feature", "properties": { "County": "KINGS", "Operation Type": "Store", "Establishment Type": "AC", "Entity Name": "KANZ DELI CORP", "DBA Name": "KANZ DELI", "Street Number": "1492", "Street Name": "PARK PL", "Address Line 2": null, "Address Line 3": null, "City": "BROOKLYN", "State": "NY", "Zip Code": 11213, "Bodega": "#153cff", "color": "#01eaff" }, "geometry": { "type": "Point", "coordinates": [ -73.927736829, 40.672093793 ] } },
{ "type": "Feature", "properties": { "County": "KINGS", "Operation Type": "Store", "Establishment Type": "AC", "Entity Name": "HABIBIS DELI & GRILL INC", "DBA Name": "HABIBIS DELI & GRILL", "Street Number": "2436", "Street Name": "STILLWELL AVE", "Address Line 2": null, "Address Line 3": null, "City": "BROOKLYN", "State": "NY", "Zip Code": 11223, "Bodega": "#153cff", "color": "#01eaff" }, "geometry": { "type": "Point", "coordinates": [ -73.983799607, 40.58796065 ] } },
{ "type": "Feature", "properties": { "County": "QUEENS", "Operation Type": "Store", "Establishment Type": "A", "Entity Name": "BIANCAS DELI CORP", "DBA Name": "BIANCAS DELI", "Street Number": "43-06", "Street Name": "102ND ST", "Address Line 2": null, "Address Line 3": null, "City": "CORONA", "State": "NY", "Zip Code": 11368, "Bodega": "#153cff", "color": "#01eaff" }, "geometry": { "type": "Point", "coordinates": [ -73.862896857, 40.746979392 ] } },
{ "type": "Feature", "properties": { "County": "KINGS", "Operation Type": "Store", "Establishment Type": "AC", "Entity Name": "230 DELI & GRILL I LLC", "DBA Name": "230 DELI & GRILL", "Street Number": "230", "Street Name": "4TH AVE", "Address Line 2": null, "Address Line 3": null, "City": "BROOKLYN", "State": "NY", "Zip Code": 11215, "Bodega": "#153cff", "color": "#01eaff" }, "geometry": { "type": "Point", "coordinates": [ -73.983414291, 40.677254573 ] } },
{ "type": "Feature", "properties": { "County": "SUFFOLK", "Operation Type": "Store", "Establishment Type": "AC", "Entity Name": "LAKXSHANNAS CONVENIENCE STORE INC", "DBA Name": "7 ELEVEN STORE #41571A", "Street Number": "360", "Street Name": "E JERICHO TPKE.", "Address Line 2": null, "Address Line 3": null, "City": "HUNTINGTON STATION", "State": "NY", "Zip Code": 11746, "Bodega": "#153cff", "color": "#01eaff" }, "geometry": { "type": "Point", "coordinates": [ -73.397141571, 40.830077036 ] } },
{ "type": "Feature", "properties": { "County": "BRONX", "Operation Type": "Store", "Establishment Type": "A", "Entity Name": "MORRO DELI GROCERY CORP", "DBA Name": "MORRO DELI GROCERY", "Street Number": "602", "Street Name": "MORRIS AVE #3", "Address Line 2": null, "Address Line 3": null, "City": "BRONX", "State": "NY", "Zip Code": 10451, "Bodega": "#153cff", "color": "#01eaff" }, "geometry": { "type": "Point", "coordinates": [ -73.92201618, 40.818662099 ] } },
{ "type": "Feature", "properties": { "County": "BRONX", "Operation Type": "Store", "Establishment Type": "A", "Entity Name": "DELI GROCERY 137A CORP", "DBA Name": "DELI GROCERY 137A", "Street Number": "575", "Street Name": "E 137TH ST", "Address Line 2": null, "Address Line 3": null, "City": "BRONX", "State": "NY", "Zip Code": 10454, "Bodega": "#153cff", "color": "#01eaff" }, "geometry": { "type": "Point", "coordinates": [ -73.917753815, 40.8061708 ] } },
{ "type": "Feature", "properties": { "County": "RICHMOND", "Operation Type": "Store", "Establishment Type": "AC", "Entity Name": "SOUTH BEACH DELI CORP", "DBA Name": "SOUTH BEACH DELI", "Street Number": "125", "Street Name": "OLYMPIA BLVD", "Address Line 2": null, "Address Line 3": null, "City": "STATEN ISLAND", "State": "NY", "Zip Code": 10305, "Bodega": "#153cff", "color": "#01eaff" }, "geometry": { "type": "Point", "coordinates": [ -74.072839978, 40.592408842 ] } },
{ "type": "Feature", "properties": { "County": "QUEENS", "Operation Type": "Store", "Establishment Type": "AC", "Entity Name": "109 STOP 1 DELI INC", "DBA Name": "109 STOP 1 DELI", "Street Number": "109-14", "Street Name": "MERRICK BLVD", "Address Line 2": null, "Address Line 3": null, "City": "JAMAICA", "State": "NY", "Zip Code": 11433, "Bodega": "#153cff", "color": "#01eaff" }, "geometry": { "type": "Point", "coordinates": [ -73.784163293, 40.696859551 ] } },
{ "type": "Feature", "properties": { "County": "KINGS", "Operation Type": "Store", "Establishment Type": "AC", "Entity Name": "305 GOOD DELI & GROCERY CORP", "DBA Name": "305 GOOD DELI & GROCERY", "Street Number": "305", "Street Name": "7TH AVE", "Address Line 2": null, "Address Line 3": null, "City": "BROOKLYN", "State": "NY", "Zip Code": 11215, "Bodega": "#153cff", "color": "#01eaff" }, "geometry": { "type": "Point", "coordinates": [ -73.980838197, 40.667570415 ] } },
{ "type": "Feature", "properties": { "County": "RICHMOND", "Operation Type": "Store", "Establishment Type": "AC", "Entity Name": "OCEAN AVE DELI OF STATEN ISLAND INC", "DBA Name": "OCEAN AVE DELI OF STATEN ISLAND", "Street Number": "112", "Street Name": "OCEAN AVE", "Address Line 2": null, "Address Line 3": null, "City": "STATEN ISLAND", "State": "NY", "Zip Code": 10305, "Bodega": "#153cff", "color": "#01eaff" }, "geometry": { "type": "Point", "coordinates": [ -74.06327388, 40.595642957 ] } },
{ "type": "Feature", "properties": { "County": "KINGS", "Operation Type": "Store", "Establishment Type": "AC", "Entity Name": "GREEN VALLEY MART CORP", "DBA Name": "GREEN VALLEY MART", "Street Number": "162", "Street Name": "DRIGGS AVE", "Address Line 2": null, "Address Line 3": null, "City": "BROOKLYN", "State": "NY", "Zip Code": 11222, "Bodega": "#153cff", "color": "#01eaff" }, "geometry": { "type": "Point", "coordinates": [ -73.944898524, 40.723122442 ] } },
{ "type": "Feature", "properties": { "County": "BRONX", "Operation Type": "Store", "Establishment Type": "AC", "Entity Name": "EIGHT BROTHERS DELI & GROCERY CORP", "DBA Name": "EIGHT BROTHERS DELI & GROCERY", "Street Number": "788", "Street Name": "EAST 214TH STREET", "Address Line 2": null, "Address Line 3": null, "City": "BRONX", "State": "NY", "Zip Code": 10467, "Bodega": "#153cff", "color": "#01eaff" }, "geometry": { "type": "Point", "coordinates": [ -73.861775107, 40.878937203 ] } },
{ "type": "Feature", "properties": { "County": "NEW YORK", "Operation Type": "Store", "Establishment Type": "AC", "Entity Name": "D CHICHI DELI GROCERY CORP", "DBA Name": "D CHICHI DELI GROCERY", "Street Number": "534", "Street Name": "W 207TH ST", "Address Line 2": null, "Address Line 3": null, "City": "NEW YORK", "State": "NY", "Zip Code": 10034, "Bodega": "#153cff", "color": "#01eaff" }, "geometry": { "type": "Point", "coordinates": [ -73.919914837, 40.865406674 ] } },
{ "type": "Feature", "properties": { "County": "ALBANY", "Operation Type": "Store", "Establishment Type": "AC", "Entity Name": "LIVING DELI", "DBA Name": "LIVING DELI", "Street Number": "203", "Street Name": "LIVINGSTON AVE", "Address Line 2": null, "Address Line 3": null, "City": "ALBANY", "State": "NY", "Zip Code": 12210, "Bodega": "#153cff", "color": "#01eaff" }, "geometry": { "type": "Point", "coordinates": [ -73.754400412, 42.661420076 ] } },
{ "type": "Feature", "properties": { "County": "KINGS", "Operation Type": "Store", "Establishment Type": "AC", "Entity Name": "452 GOURMET DELI AND GRILL CORP", "DBA Name": "452 GOURMET DELI AND GRILL", "Street Number": "452", "Street Name": "KNICKERBOCKER AVE", "Address Line 2": null, "Address Line 3": null, "City": "BROOKLYN", "State": "NY", "Zip Code": 11237, "Bodega": "#153cff", "color": "#01eaff" }, "geometry": { "type": "Point", "coordinates": [ -73.918869614, 40.69897837 ] } },
{ "type": "Feature", "properties": { "County": "BRONX", "Operation Type": "Store", "Establishment Type": "AC", "Entity Name": "LA MIA DELI INC", "DBA Name": "LA MIA DELI", "Street Number": "1398", "Street Name": "OGDEN AVENUE", "Address Line 2": null, "Address Line 3": null, "City": "BRONX", "State": "NY", "Zip Code": 10452, "Bodega": "#153cff", "color": "#01eaff" }, "geometry": { "type": "Point", "coordinates": [ -73.923907724, 40.842553373 ] } },
{ "type": "Feature", "properties": { "County": "NEW YORK", "Operation Type": "Store", "Establishment Type": "AC", "Entity Name": "2236 LA UNION DELI GROCERY CORP", "DBA Name": "2236 LA UNION DELI GROCERY", "Street Number": "2108", "Street Name": "AMSTERDAM AVE", "Address Line 2": null, "Address Line 3": null, "City": "NEW YORK", "State": "NY", "Zip Code": 10032, "Bodega": "#153cff", "color": "#01eaff" }, "geometry": { "type": "Point", "coordinates": [ -73.938727348, 40.837700922 ] } },
{ "type": "Feature", "properties": { "County": "NASSAU", "Operation Type": "Store", "Establishment Type": "AC", "Entity Name": "YUMMY TUMMIES CONVENIENCE STORE CORP", "DBA Name": "YUMMY TUMMIES CONVENIENCE STORE", "Street Number": "153", "Street Name": "BALDWIN ROAD", "Address Line 2": null, "Address Line 3": null, "City": "HEMPSTEAD", "State": "NY", "Zip Code": 11550, "Bodega": "#153cff", "color": "#01eaff" }, "geometry": { "type": "Point", "coordinates": [ -73.615381854, 40.696921661 ] } },
{ "type": "Feature", "properties": { "County": "QUEENS", "Operation Type": "Store", "Establishment Type": "AC", "Entity Name": "20TH AVE DELI & CONVENIENCE INC", "DBA Name": "20TH AVE DELI & CONVENIENCE", "Street Number": "126-20", "Street Name": "20TH AVE", "Address Line 2": null, "Address Line 3": null, "City": "COLLEGE POINT", "State": "NY", "Zip Code": 11356, "Bodega": "#153cff", "color": "#01eaff" }, "geometry": { "type": "Point", "coordinates": [ -73.841551335, 40.781601724 ] } },
{ "type": "Feature", "properties": { "County": "SUFFOLK", "Operation Type": "Store", "Establishment Type": "AC", "Entity Name": "SMITH AVE DELI INC", "DBA Name": "SMITH AVE DELI", "Street Number": "4-B", "Street Name": "SMITH AVE", "Address Line 2": null, "Address Line 3": null, "City": "BAY SHORE", "State": "NY", "Zip Code": 11706, "Bodega": "#153cff", "color": "#01eaff" }, "geometry": { "type": "Point", "coordinates": [ -73.251079281, 40.720176623 ] } },
{ "type": "Feature", "properties": { "County": "KINGS", "Operation Type": "Store", "Establishment Type": "AC", "Entity Name": "LA FLOTA DELI BK CORP", "DBA Name": "LA FLOTA DELI BK", "Street Number": "1018", "Street Name": "BELMONT AVENUE", "Address Line 2": null, "Address Line 3": null, "City": "BROOKLYN", "State": "NY", "Zip Code": 11208, "Bodega": "#153cff", "color": "#01eaff" }, "geometry": { "type": "Point", "coordinates": [ -73.871360484, 40.674078125 ] } },
{ "type": "Feature", "properties": { "County": "NASSAU", "Operation Type": "Store", "Establishment Type": "AC", "Entity Name": "GRAHAM AVE FOOD MART INC", "DBA Name": "GRAHAM AVE FOOD MART", "Street Number": "147", "Street Name": "GRAHAM AVE", "Address Line 2": null, "Address Line 3": null, "City": "HEMPSTEAD", "State": "NY", "Zip Code": 11550, "Bodega": "#153cff", "color": "#01eaff" }, "geometry": { "type": "Point", "coordinates": [ -73.628494252, 40.695555285 ] } },
{ "type": "Feature", "properties": { "County": "NEW YORK", "Operation Type": "Store", "Establishment Type": "AC", "Entity Name": "DUKE DELI & MARKET PLACE INC", "DBA Name": "DUKES CAFE", "Street Number": "200", "Street Name": "W 98TH ST", "Address Line 2": null, "Address Line 3": null, "City": "NEW YORK", "State": "NY", "Zip Code": 10025, "Bodega": "#153cff", "color": "#01eaff" }, "geometry": { "type": "Point", "coordinates": [ -73.969769559, 40.795415687 ] } },
{ "type": "Feature", "properties": { "County": "RENSSELAER", "Operation Type": "Store", "Establishment Type": "AC", "Entity Name": "COLLAR CITY DELI AND GROCERY", "DBA Name": "TROY TOWN", "Street Number": "40", "Street Name": "4TH ST", "Address Line 2": null, "Address Line 3": null, "City": "TROY", "State": "NY", "Zip Code": 12180, "Bodega": "#153cff", "color": "#01eaff" }, "geometry": { "type": "Point", "coordinates": [ -73.688629965, 42.732251348 ] } },
{ "type": "Feature", "properties": { "County": "KINGS", "Operation Type": "Store", "Establishment Type": "AC", "Entity Name": "AVENUE J JUICE BAR DELI CORP", "DBA Name": "AVENUE J JUICE BAR DELI", "Street Number": "1348", "Street Name": "CONEY ISLAND AVE", "Address Line 2": null, "Address Line 3": null, "City": "BROOKLYN", "State": "NY", "Zip Code": 11230, "Bodega": "#153cff", "color": "#01eaff" }, "geometry": { "type": "Point", "coordinates": [ -73.965341902, 40.624573515 ] } },
{ "type": "Feature", "properties": { "County": "NASSAU", "Operation Type": "Store", "Establishment Type": "AC", "Entity Name": "JASBELL MART INC", "DBA Name": "JASBELL MART", "Street Number": "1455", "Street Name": "NEWBRIDGE ROAD", "Address Line 2": null, "Address Line 3": null, "City": "BELLMORE", "State": "NY", "Zip Code": 11710, "Bodega": "#153cff", "color": "#01eaff" }, "geometry": { "type": "Point", "coordinates": [ -73.539751272, 40.684345202 ] } },
{ "type": "Feature", "properties": { "County": "ERIE", "Operation Type": "Store", "Establishment Type": "AC", "Entity Name": "KENMORE CONVENIENCE MART INC", "DBA Name": "KENMORE CONVENIENCE MART", "Street Number": "2411", "Street Name": "ELMWOOD AVE", "Address Line 2": null, "Address Line 3": null, "City": "BUFFALO", "State": "NY", "Zip Code": 14217, "Bodega": "#153cff", "color": "#01eaff" }, "geometry": { "type": "Point", "coordinates": [ -78.878225218, 42.963072743 ] } },
{ "type": "Feature", "properties": { "County": "ALBANY", "Operation Type": "Store", "Establishment Type": "AC", "Entity Name": "AMROS DELI LLC", "DBA Name": "AMROS DELI", "Street Number": "30", "Street Name": "N 3RD ST", "Address Line 2": null, "Address Line 3": null, "City": "ALBANY", "State": "NY", "Zip Code": 12204, "Bodega": "#153cff", "color": "#01eaff" }, "geometry": { "type": "Point", "coordinates": [ -73.738725117, 42.674184842 ] } },
{ "type": "Feature", "properties": { "County": "BRONX", "Operation Type": "Store", "Establishment Type": "A", "Entity Name": "NEILL GOURMET DELI 2 INC", "DBA Name": "NEILL GOURMET DELI 2", "Street Number": "1074", "Street Name": "NEILL AVE", "Address Line 2": null, "Address Line 3": null, "City": "BRONX", "State": "NY", "Zip Code": 10461, "Bodega": "#153cff", "color": "#01eaff" }, "geometry": { "type": "Point", "coordinates": [ -73.856676311, 40.853038547 ] } },
{ "type": "Feature", "properties": { "County": "BRONX", "Operation Type": "Store", "Establishment Type": "AC", "Entity Name": "MARCS DELI & GROCERY CORP", "DBA Name": "MARCS DELI & GROCERY", "Street Number": "1126", "Street Name": "WESTCHESTER AVE", "Address Line 2": null, "Address Line 3": null, "City": "BRONX", "State": "NY", "Zip Code": 10459, "Bodega": "#153cff", "color": "#01eaff" }, "geometry": { "type": "Point", "coordinates": [ -73.889819278, 40.82557038 ] } },
{ "type": "Feature", "properties": { "County": "BRONX", "Operation Type": "Store", "Establishment Type": "A", "Entity Name": "GT HARDWARE & CONVENIENCE CORP", "DBA Name": "GT HARDWARE & CONVENIENCE", "Street Number": "1735", "Street Name": "GLEASON AVENUE", "Address Line 2": null, "Address Line 3": null, "City": "BRONX", "State": "NY", "Zip Code": 10472, "Bodega": "#153cff", "color": "#01eaff" }, "geometry": { "type": "Point", "coordinates": [ -73.869082366, 40.829619342 ] } },
{ "type": "Feature", "properties": { "County": "KINGS", "Operation Type": "Store", "Establishment Type": "AC", "Entity Name": "2059 FULTON DELI CORP", "DBA Name": "2059 FULTON DELI", "Street Number": "2059", "Street Name": "FULTON ST", "Address Line 2": null, "Address Line 3": null, "City": "BROOKLYN", "State": "NY", "Zip Code": 11233, "Bodega": "#153cff", "color": "#01eaff" }, "geometry": { "type": "Point", "coordinates": [ -73.910685775, 40.678398703 ] } },
{ "type": "Feature", "properties": { "County": "BRONX", "Operation Type": "Store", "Establishment Type": "AC", "Entity Name": "STAR ONE DELI GROCERY 1 CORP", "DBA Name": "STAR ONE DELI GROCERY 1", "Street Number": "541", "Street Name": "E TREMONT AVE", "Address Line 2": null, "Address Line 3": null, "City": "BRONX", "State": "NY", "Zip Code": 10457, "Bodega": "#153cff", "color": "#01eaff" }, "geometry": { "type": "Point", "coordinates": [ -73.895462562, 40.846659122 ] } },
{ "type": "Feature", "properties": { "County": "QUEENS", "Operation Type": "Store", "Establishment Type": "AC", "Entity Name": "FREEWAY SUPERMARKET AND DELI CORP", "DBA Name": "FREEWAY SUPERMARKET AND DELI", "Street Number": "53-07", "Street Name": "ROCKWAY BEACH BLVD", "Address Line 2": null, "Address Line 3": null, "City": "FAR ROCKAWAY", "State": "NY", "Zip Code": 11691, "Bodega": "#153cff", "color": "#01eaff" }, "geometry": { "type": "Point", "coordinates": [ -73.783712766, 40.592486835 ] } },
{ "type": "Feature", "properties": { "County": "KINGS", "Operation Type": "Store", "Establishment Type": "AC", "Entity Name": "LOS TORREZ DELI CORP", "DBA Name": "LOS TORREZ DELI", "Street Number": "3142", "Street Name": "FULTON ST", "Address Line 2": null, "Address Line 3": null, "City": "BROOKLYN", "State": "NY", "Zip Code": 11208, "Bodega": "#153cff", "color": "#01eaff" }, "geometry": { "type": "Point", "coordinates": [ -73.878882403, 40.681637093 ] } },
{ "type": "Feature", "properties": { "County": "KINGS", "Operation Type": "Store", "Establishment Type": "AC", "Entity Name": "AL GROCERY AND DELI CORP", "DBA Name": "AL GROCERY AND DELI", "Street Number": "1691", "Street Name": "STERLING PLACE", "Address Line 2": null, "Address Line 3": null, "City": "BROOKLYN", "State": "NY", "Zip Code": 11233, "Bodega": "#153cff", "color": "#01eaff" }, "geometry": { "type": "Point", "coordinates": [ -73.922622024, 40.671134694 ] } },